"","ROKATO","name","region","country","lat","long","alt","AROKATO","Pop1840","Pop1856","Pop1897","Pop1926","Pop1939","Pop1959","Pop1970","Pop1979","Pop1989","Pop2002","Pop2010"
"1","AR01101","Erevan","Erevan","Armenia",40.18,44.51,3389,"AAR01101",8.62,13.18,29.01,62.18,204.21,509.34,766.71,1019.21,1201.54,1103.34,1116.6
"2","AR02101","Ashtarak","Aragatsotn","Armenia",40.3,44.36,3740,"AAR02101",NA,NA,NA,4.85,5.78,7.56,12.13,16.36,23.62,20.65,20.8
"3","AR02102","Aparan","Aragatsotn","Armenia",40.6,44.35,6230,"AAR02102",NA,NA,NA,NA,NA,2.66,4.65,5.99,7.38,6.61,6.6
"4","AR03101","Ararat","Ararat","Armenia",39.81,44.71,2604,"AAR03101",NA,NA,NA,NA,2.33,5.41,8.52,15.16,20.11,20.51,20.8
"5","AR03102","Artashat","Ararat","Armenia",39.95,44.55,2726,"AAR03102",NA,NA,NA,2.46,4.15,7.28,13.92,16.75,32.32,25.1,25.4
"6","AR03103","Masis","Ararat","Armenia",40.01,44.49,2805,"AAR01101",NA,NA,NA,NA,NA,NA,1.55,12.7,22.16,21.43,22.4
"7","AR03104","Vedi","Ararat","Armenia",39.91,44.73,3061,"AAR03104",NA,NA,NA,NA,NA,3.58,6.17,7.79,10.76,13,13.6
"8","AR04101","Armavir","Armavir","Armenia",40.09,44.05,2837,"AAR04101",NA,NA,NA,0.48,3.44,14.93,25.88,31.43,46.86,32.08,33.8
"9","AR04102","Metsamor","Armavir","Armenia",40.14,44.12,2788,"AAR04102",NA,NA,NA,NA,NA,NA,NA,7.88,11.96,9.93,10.4
"10","AR04103","Vagharshapat","Armavir","Armenia",40.17,44.29,2883,"AAR01101",NA,NA,5.27,8.04,9.78,19.7,31.82,44.04,60.54,56.42,57.5
"11","AR05103","Martouni","Gegharkunik","Armenia",40.14,45.31,6302,"AAR05103",NA,NA,NA,1.51,2.52,5.56,7.53,9.5,13.57,11.79,12.1
"12","AR05104","Sevan","Gegharkunik","Armenia",40.55,44.95,6249,"AAR05104",NA,NA,NA,NA,2.67,6.42,12.39,20.49,26.95,21.44,21.7
"13","AR05105","Vardenis","Gegharkunik","Armenia",40.18,45.73,6377,"AAR05105",NA,NA,NA,NA,NA,6.32,8.29,11.34,13.91,12.74,12.7
"14","AR06101","Alaverdi","Lorri","Armenia",41.13,44.65,4251,"AAR06101",NA,NA,NA,1.62,10.01,16.71,21.31,22.47,26.27,16.58,15.8
"15","AR06105","Spitak","Lorri","Armenia",40.84,44.27,4967,"AAR06105",NA,NA,NA,NA,NA,8.67,11.91,14.59,13.74,14.99,15.2
"16","AR06106","Stepanavan","Lorri","Armenia",41.01,44.39,4629,"AAR06106",NA,NA,NA,4.94,6.06,9.8,13.45,16.49,9.47,16.25,15.8
"17","AR06107","Vanadzor","Lorri","Armenia",40.81,44.49,4393,"AAR06107",NA,NA,NA,8.3,17.61,49.42,106.62,146.04,75.62,106.97,104.8
"18","AR07101","Abovyan","Kotayk","Armenia",40.27,44.62,4691,"AAR01101",NA,NA,NA,NA,NA,NA,18.71,38.39,58.67,44.63,46.5
"19","AR07103","Eghvard","Kotayk","Armenia",40.32,44.48,4448,"AAR07103",NA,NA,NA,NA,NA,NA,NA,7.66,11.58,11.72,12.3
"20","AR07105","Khrazdan","Kotayk","Armenia",40.07,44.44,2749,"AAR07105",NA,NA,NA,NA,NA,7.77,26.83,41.36,60.84,52.83,53.2
"21","AR07106","______________ً","Kotayk","Armenia",40.3,44.58,4389,"AAR07106",NA,NA,NA,NA,NA,1.41,3.87,2.19,11.09,10.15,10.3
"22","AR07107","Tcharentsavan","Kotayk","Armenia",40.41,44.64,5511,"AAR07107",NA,NA,NA,NA,NA,2.35,16.46,24.81,33.9,24.93,25
"23","AR08101","Artik","Shirak","Armenia",40.62,43.98,6295,"AAR08101",NA,NA,NA,NA,5.76,9.07,13.32,16.47,25.13,17.5,17.3
"24","AR08102","Gyoumri","Shirak","Armenia",40.79,43.85,5075,"AAR08102",NA,11.6,30.62,38.43,67.73,108.45,164.97,206.61,122.59,150.41,146.3
"25","AR09101","Agarak","Syunik","Armenia",38.86,46.19,1916,"AAR09101",NA,NA,NA,NA,NA,1.61,3.91,4.07,5.54,4.8,4.8
"26","AR09102","Goris","Syunik","Armenia",39.51,46.34,4757,"AAR09102",NA,NA,1.45,2.67,5.57,10.38,14.62,17.38,23.8,23.22,23
"27","AR09104","Kapan","Syunik","Armenia",39.2,46.41,2857,"AAR09104",NA,NA,NA,NA,8.51,19.32,29.92,35.89,42.38,45.71,45.5
"28","AR09106","Sisian","Syunik","Armenia",39.52,46.03,5249,"AAR09106",NA,NA,NA,NA,NA,3.84,7.43,10.6,15.29,16.81,16.7
"29","AR11103","Dilidjan","Tavush","Armenia",40.74,44.86,4980,"AAR11103",NA,NA,NA,5.61,5.3,11.41,15.76,20.6,23.7,16.15,15.6
"30","AR11104","Iyevan","Tavush","Armenia",40.88,45.15,2726,"AAR11104",NA,NA,NA,2.26,3.65,7.64,13.53,15.41,18.68,20.27,20.6
"31","AZ01101","Baki","Bak .","Azerbaijan",40.4,49.88,6,"AAZ01101",NA,NA,111.9,446.83,543.94,642.51,851.55,1021.97,1150.06,1160.45,1166.9
"32","AZ01201","Badamdar","Bak .","Azerbaijan",40.34,49.8,426,"AAZ01101",NA,NA,NA,NA,NA,NA,NA,NA,11.8,16.75,21.6
"33","AZ01202","Bakixanov","Bak .","Azerbaijan",40.42,49.96,32,"AAZ01101",NA,NA,NA,NA,10.34,25.07,35.72,60.05,73.71,70.88,69.2
"34","AZ01203","Balaxani","Bak .","Azerbaijan",40.46,49.92,196,"AAZ01101",NA,NA,NA,NA,8.96,11.36,9.47,8.85,10.27,12.27,13.7
"35","AZ01204","Bilacari","Bak .","Azerbaijan",40.43,49.81,285,"AAZ01101",NA,NA,NA,NA,8.91,12.47,19.61,24.21,30.5,38.86,45.1
"36","AZ01205","Bina","Bak .","Azerbaijan",40.45,50.08,16,"AAZ01101",NA,NA,NA,NA,2.95,9.47,14.25,18.83,22.81,38.57,53.3
"37","AZ01206","Binaqadi","Bak .","Azerbaijan",40.48,49.82,167,"AAZ01101",NA,NA,NA,NA,NA,10.96,12.61,14.84,13.8,25.45,37.1
"38","AZ01207","B_lb_la","Bak .","Azerbaijan",40.43,49.98,180,"AAZ01101",NA,NA,NA,NA,7.08,11.57,11.57,12.78,13.81,19.39,23.9
"39","AZ01208","Buzovna","Bak .","Azerbaijan",40.52,50.12,-39,"AAZ01101",NA,NA,NA,NA,4.85,12.89,14.56,19.41,23.08,26.76,29.3
"40","AZ01209","ahmadli","Bak .","Azerbaijan",40.38,49.96,301,"AAZ01101",NA,NA,NA,NA,NA,4.13,4.75,7.69,6.36,8.73,10.6
"41","AZ01210","alat","Bak .","Azerbaijan",39.94,49.41,-88,"AAZ01210",NA,NA,NA,NA,3.02,5.12,7.92,8.36,11.46,10.92,10.6
"42","AZ01211","amircan","Bak .","Azerbaijan",40.43,49.98,218,"AAZ01101",NA,NA,NA,NA,9.11,12.22,14.47,16.59,17.82,24.34,29.5
"43","AZ01212","H_vsan","Bak .","Azerbaijan",40.37,50.09,-59,"AAZ01212",NA,NA,NA,NA,NA,NA,4.73,9.88,28.51,34.23,38.3
"44","AZ01213","Keshla","Bak .","Azerbaijan",40.4,49.9,114,"AAZ01101",NA,NA,NA,NA,NA,NA,NA,NA,NA,NA,23
"45","AZ01214","L_kbatan","Bak .","Azerbaijan",40.33,49.73,3,"AAZ01214",NA,NA,NA,NA,7.09,13.16,15.52,16.74,23.37,30.11,35.2
"46","AZ01215","Mashtagha","Bak .","Azerbaijan",40.53,50,101,"AAZ01215",NA,NA,NA,NA,11.63,16.95,22.23,31.92,40.29,41.71,42.6
"47","AZ01216","Mammad amin Rasulzada","Bak .","Azerbaijan",40.43,49.83,173,"AAZ01101",NA,NA,NA,NA,4.11,15.95,43.17,77.17,34.29,42.55,48.6
"48","AZ01217","Mardakan","Bak .","Azerbaijan",40.49,50.14,36,"AAZ01101",NA,NA,NA,NA,6.44,10.2,15.37,14.63,17.12,20.55,23
"49","AZ01218","Pirallahi","Bak .","Azerbaijan",40.4,50.33,-91,"AAZ01218",NA,NA,NA,NA,NA,12.59,12.49,11.57,13.72,14.92,15.7
"50","AZ01219","Qaratchuxur","Bak .","Azerbaijan",40.4,49.97,213,"AAZ01101",NA,NA,NA,NA,NA,8.7,10.63,13.08,46.38,64.74,79.5
"51","AZ01220","Qobustan","Bak .","Azerbaijan",40.08,49.42,-91,"AAZ01220",NA,NA,NA,NA,NA,6.98,8.4,8.17,10.62,13.15,15
"52","AZ01221","Ramana","Bak .","Azerbaijan",40.46,49.98,209,"AAZ01101",NA,NA,NA,NA,2.26,7.38,6.78,6.86,7.53,9.94,11.8
"53","AZ01222","Sabuntchu","Bak .","Azerbaijan",40.44,49.95,134,"AAZ01101",NA,NA,NA,NA,20.78,31.56,25.75,30.9,24.2,28.1,30.8
"54","AZ01223","Sahil","Bak .","Azerbaijan",40.38,49.98,NA,"AAZ01101",NA,NA,NA,NA,NA,3.55,7.46,10.24,19.28,21.39,22.8
"55","AZ01224","Sulutapa","Bak .","Azerbaijan",40.43,49.77,144,"AAZ01101",NA,NA,NA,NA,NA,NA,NA,NA,NA,NA,17.9
"56","AZ01225","sh_valan","Bak .","Azerbaijan",40.48,50.18,39,"AAZ01101",NA,NA,NA,NA,NA,11.8,13.8,14.24,14.87,16.79,18.1
"57","AZ01226","T_rkan","Bak .","Azerbaijan",40.36,50.22,-52,"AAZ01226",NA,NA,NA,NA,NA,NA,4.64,6.54,8.39,9.98,11.1
"58","AZ01227","Yeni Suraxani","Bak .","Azerbaijan",40.43,50.04,3,"AAZ01101",NA,NA,NA,NA,NA,6.73,7.02,7.44,9.7,13.68,16.9
"59","AZ01228","Zabrat","Bak .","Azerbaijan",40.49,49.95,141,"AAZ01101",NA,NA,NA,NA,2.19,18.25,16.51,17.07,16.56,22.62,27.4
"60","AZ01229","Zigh","Bak .","Azerbaijan",40.37,49.98,-22,"AAZ01101",NA,NA,NA,NA,NA,2.07,2.76,3.03,4.41,8.69,13.2
"61","AZ01230","Zira","Bak .","Azerbaijan",40.36,50.29,-75,"AAZ01230",NA,NA,NA,NA,NA,NA,6.22,7.81,8.65,10.26,11.4
"62","AZ02101","Culfa","Nax_van Muxtar Respublikas","Azerbaijan",38.95,45.63,NA,"AAZ02101",NA,NA,NA,0.63,2.53,4.02,5.43,6.89,8.84,10.85,12.3
"63","AZ02102","Naxtchivan","Nax_van Muxtar Respublikas","Azerbaijan",39.21,45.41,2883,"AAZ02102",NA,4.89,8.79,8.95,15.69,25.34,33.28,40.38,59.75,67.47,72.7
"64","AZ02103","Ordubad","Nax_van Muxtar Respublikas","Azerbaijan",38.91,46.03,2975,"AAZ02103",NA,4.39,4.61,3.67,4.31,6.7,6.93,8.15,9.4,9.89,10.2
"65","AZ03101","Sumqayit","Aberon","Azerbaijan",40.59,49.67,78,"AAZ03101",NA,NA,NA,NA,6.35,51.49,124.49,190.11,231.1,260.78,280.9
"66","AZ03102","Xirdalan","Aberon","Azerbaijan",40.45,49.76,288,"AAZ01101",NA,NA,NA,NA,NA,3.04,6.3,22.67,28.23,58.93,92.7
"67","AZ03201","Corat","Aberon","Azerbaijan",40.57,49.71,-9,"AAZ03201",NA,NA,NA,NA,NA,2.45,4.29,6.21,7.81,10.65,12.9
"68","AZ03202","Haci Zeynalabdin Taghiyev","Aberon","Azerbaijan",40.62,49.56,-32,"AAZ03202",NA,NA,NA,NA,NA,5.39,6.76,8.63,16.37,19.1,21
"69","AZ03203","Mehdiabad","Aberon","Azerbaijan",40.5,49.85,67,"AAZ01101",NA,NA,NA,NA,NA,NA,NA,NA,NA,7.37,11.4
"70","AZ03204","Saray","Aberon","Azerbaijan",40.53,49.72,226,"AAZ03101",NA,NA,NA,NA,NA,NA,2.78,5.73,8.72,13.98,18.7
"71","AZ04101","Aghcabadi","Aran","Azerbaijan",40.05,47.46,95,"AAZ04101",NA,NA,NA,NA,NA,13.99,17.04,20.3,25.16,33.11,39.2
"72","AZ04102","Aghdash","Aran","Azerbaijan",40.65,47.48,137,"AAZ04102",NA,NA,0.53,4.54,8.83,9.87,14.93,17.35,19.76,25.27,29.4
"73","AZ04103","Barda","Aran","Azerbaijan",40.37,47.13,269,"AAZ04103",NA,NA,NA,NA,NA,13.03,20.79,24.12,30.91,35.18,38.1
"74","AZ04104","Beylaqan","Aran","Azerbaijan",39.78,47.62,141,"AAZ04104",NA,NA,NA,NA,4.17,8.91,7.63,9.4,12.26,14.12,15.4
"75","AZ04105","Bilasuvar","Aran","Azerbaijan",39.46,48.55,49,"AAZ04105",NA,NA,NA,NA,NA,5.95,11.84,15.93,18.63,19.83,20.6
"76","AZ04106","G_ytchay","Aran","Azerbaijan",40.62,47.76,295,"AAZ04106",NA,NA,2.2,4.28,10.54,16.49,25.92,29.21,30.93,33.92,35.9
"77","AZ04107","Haciqabul","Aran","Azerbaijan",40.04,48.94,-29,"AAZ04107",NA,NA,NA,1.89,6.36,12.24,14.87,19.07,21.5,23.9,25.5
"78","AZ04108","mishli","Aran","Azerbaijan",39.87,48.06,49,"AAZ04108",NA,NA,NA,NA,NA,9.48,17.84,21.34,25.72,30.01,33
"79","AZ04109","K_rdamir","Aran","Azerbaijan",40.34,48.16,36,"AAZ04109",NA,NA,NA,1.62,5.87,10.44,13.31,14.84,15.39,17.07,18.2
"80","AZ04110","Mingatchevir","Aran","Azerbaijan",40.77,47.05,85,"AAZ04110",NA,NA,NA,NA,NA,19.9,43.09,59.73,85.39,92.87,97.8
"81","AZ04111","Nefttchala","Aran","Azerbaijan",39.36,49.25,-22,"AAZ04111",NA,NA,NA,NA,NA,4.98,7.13,10.73,14.24,18,20.8
"82","AZ04112","Saatli","Aran","Azerbaijan",39.93,48.37,9,"AAZ04112",NA,NA,NA,NA,NA,5.94,6.59,10.99,14.2,16.33,17.8
"83","AZ04113","Sabirabad","Aran","Azerbaijan",40.01,48.48,-49,"AAZ04113",NA,NA,NA,1.82,6.18,8.87,13.39,15,18.61,18.6,18.6
"84","AZ04114","Salyan","Aran","Azerbaijan",39.59,48.98,-13,"AAZ04114",NA,NA,11.79,8.25,13.55,17.2,24.23,26.2,30.4,34.16,36.7
"85","AZ04115","shirvan","Aran","Azerbaijan",39.93,48.92,42,"AAZ04115",NA,NA,NA,NA,3.07,13.43,33.83,41.58,58.25,67.5,73.9
"86","AZ04116","Ucar","Aran","Azerbaijan",40.52,47.65,45,"AAZ04116",NA,NA,NA,NA,3.23,7.76,11.02,12.09,14.27,15.9,17
"87","AZ04117","Yevlax","Aran","Azerbaijan",40.62,47.15,59,"AAZ04117",NA,NA,NA,1.23,10.84,20.37,29.46,33.87,45.72,53.14,58.3
"88","AZ04118","Zardab","Aran","Azerbaijan",40.22,47.71,9,"AAZ04118",NA,NA,NA,NA,NA,3.57,6.22,7.53,8.45,9.61,10.4
"89","AZ05101","Aghstafa","Gnc-Qazax","Azerbaijan",41.12,45.45,1115,"AAZ05101",NA,NA,NA,1.58,4.03,6.24,8.78,9.09,9.96,11.41,12.4
"90","AZ05102","Dashkasan","Gnc-Qazax","Azerbaijan",40.49,46.08,5223,"AAZ05102",NA,NA,NA,NA,NA,9.57,8.96,8.4,10.44,10.6,10.7
"91","AZ05104","Gadabay","Gnc-Qazax","Azerbaijan",40.57,45.82,5242,"AAZ05104",NA,NA,NA,NA,NA,3.51,4.16,4.45,5.05,7.99,10.6
"92","AZ05105","Ganca","Gnc-Qazax","Azerbaijan",40.68,46.36,1341,"AAZ05105",8.63,10.94,33.63,55.51,98.95,116.12,189.51,231.9,278.01,300.89,315.9
"93","AZ05107","G_yg_l","Gnc-Qazax","Azerbaijan",40.59,46.32,2312,"AAZ05107",NA,NA,NA,3.9,5.55,11.48,12.7,13.31,15.34,16.64,17.5
"94","AZ05109","Qazax","Gnc-Qazax","Azerbaijan",41.09,45.37,1338,"AAZ05109",NA,NA,1.77,2.99,6.59,9.22,13.09,15.59,19.05,20.23,21
"95","AZ05111","shamkir","Gnc-Qazax","Azerbaijan",40.83,46.02,1420,"AAZ05111",NA,NA,NA,2.17,3.53,9.17,11.66,21.97,27.92,34.06,38.5
"96","AZ05112","Tovuz","Gnc-Qazax","Azerbaijan",40.99,45.63,1391,"AAZ05112",NA,NA,NA,2.16,4.08,7.42,10.36,11.34,13.37,13.51,13.6
"97","AZ05201","Qovlar","Gnc-Qazax","Azerbaijan",40.94,45.74,1410,"AAZ05201",NA,NA,NA,NA,NA,NA,6.78,8.16,10.13,12.21,13.7
"98","AZ06101","Aghsu","Dalq _irvan","Azerbaijan",40.57,48.4,288,"AAZ06101",NA,NA,NA,NA,NA,7.15,9.44,11.02,14.2,17.61,20.1
"99","AZ06102","smayilli","Dalq _irvan","Azerbaijan",40.79,48.15,2020,"AAZ06102",NA,NA,NA,NA,NA,3.88,4.96,6.77,11.43,13.64,15.2
"100","AZ06104","shamaxi","Dalq _irvan","Azerbaijan",40.63,48.64,2030,"AAZ06104",NA,NA,20.01,3.63,8.57,13.07,17.99,21.17,24.68,31.34,36.3
"101","AZ07101","Astara","Lnkran","Azerbaijan",38.46,48.88,-78,"AAZ07101",NA,NA,NA,NA,NA,5.38,9.13,11.95,12.96,15.16,16.7
"102","AZ07102","Calilabad","Lnkran","Azerbaijan",39.21,48.5,104,"AAZ07102",NA,NA,NA,NA,NA,6.08,15.63,19.96,25.85,35.42,43
"103","AZ07103","G_ytapa","Lnkran","Azerbaijan",39.12,48.6,9,"AAZ07103",NA,NA,NA,NA,NA,5.09,6.95,9.23,10.07,12.29,13.9
"104","AZ07104","Lankaran","Lnkran","Azerbaijan",38.75,48.85,-52,"AAZ07104",NA,NA,8.73,11.88,16.61,25.21,35.51,40.31,45.02,48.34,50.5
"105","AZ07106","Liman (port ilitch)","Lnkran","Azerbaijan",38.87,48.81,-49,"AAZ07106",NA,NA,NA,NA,NA,4.91,6.49,7.62,8.66,9.93,10.8
"106","AZ07201","arkivan","Lnkran","Azerbaijan",39.02,48.65,13,"AAZ07201",NA,NA,NA,NA,NA,NA,NA,NA,NA,NA,16.1
"107","AZ08101","Quba","Quba-Xa_maz","Azerbaijan",41.36,48.51,1968,"AAZ08101",NA,NA,15.36,13.26,11.99,15.95,18.87,19.44,20.79,22.66,23.9
"108","AZ08102","Qusar","Quba-Xa_maz","Azerbaijan",41.43,48.44,2204,"AAZ08102",NA,NA,NA,1.99,4.33,7.37,11.14,12.23,14.23,15.77,16.8
"109","AZ08103","shabran","Quba-Xa_maz","Azerbaijan",41.21,48.99,121,"AAZ08103",NA,NA,NA,NA,NA,5.93,13.39,15.37,18.65,21.23,23
"110","AZ08104","Siyazan","Quba-Xa_maz","Azerbaijan",41,49.17,748,"AAZ08104",NA,NA,NA,NA,NA,8.9,13.95,15.5,18.66,21.86,24.1
"111","AZ08105","Xatchmaz","Quba-Xa_maz","Azerbaijan",41.47,48.81,124,"AAZ08105",NA,NA,NA,1.29,7.51,17.12,22.31,26.01,28.99,35.11,39.5
"112","AZ08106","Xudat","Quba-Xa_maz","Azerbaijan",41.63,48.68,157,"AAZ08106",NA,NA,NA,NA,NA,7.07,8.81,9.76,10.89,13.66,15.7
"113","AZ09103","Qax","_ki-Zaqatala","Azerbaijan",41.42,46.92,2103,"AAZ09103",NA,NA,NA,NA,NA,3.45,6.16,7,11.42,12.08,12.5
"114","AZ09104","Qabala","_ki-Zaqatala","Azerbaijan",40.98,47.85,2588,"AAZ09104",NA,NA,NA,NA,NA,4.19,6.45,9.72,13.19,12.82,12.6
"115","AZ09105","shaki","_ki-Zaqatala","Azerbaijan",41.19,47.17,1791,"AAZ09105",NA,17.95,24.73,22.97,32.28,34.35,43.16,49.48,56.22,60.62,63.5
"116","AZ09106","Zaqatala","_ki-Zaqatala","Azerbaijan",41.63,46.64,1702,"AAZ09106",NA,NA,3.01,3.27,8.59,10.25,13.38,16.14,18.2,19.83,20.9
"117","AZ09201","aliabad","_ki-Zaqatala","Azerbaijan",41.48,46.62,797,"AAZ09201",NA,NA,NA,NA,NA,NA,NA,5.71,7.04,9.16,10.5
"118","AZ10101","Aghdam","Yuxar Qaraba (de jure)","Azerbaijan",39.99,46.93,1167,"AAZ10101",NA,NA,NA,8.15,10.75,16.06,21.28,23.56,28.03,33.68,37.7
"119","AZ10102","Aghdara","Yuxar Qaraba (de jure)","Azerbaijan",40.22,46.81,1437,"AAZ10102",NA,NA,NA,NA,NA,3.83,5.68,6.94,8.33,9.44,10.2
"120","AZ10104","F_zuli","Yuxar Qaraba (de jure)","Azerbaijan",39.6,47.14,1322,"AAZ10104",NA,NA,NA,3.15,5.95,7.6,11.25,13.2,17.09,19.53,21.2
"121","AZ10106","shusha","Yuxar Qaraba (de jure)","Azerbaijan",39.76,46.75,3845,"AAZ10106",NA,15.19,25.88,5.11,5.42,6.12,8.69,11.73,15.04,18.38,20.8
"122","AZ10107","Tartar","Yuxar Qaraba (de jure)","Azerbaijan",40.34,46.93,787,"AAZ10107",NA,NA,0.75,1.13,2.18,5.97,8.83,10.79,12.56,16.6,19.7
"123","AZ10108","Xankandi","Yuxar Qaraba (de jure)","Azerbaijan",39.82,46.75,2670,"AAZ10108",NA,NA,NA,3.12,10.46,20.33,30.29,38.98,56.71,54.57,53.3
"124","AZ11101","Kalbacar","Klbcr-La_n (de jure)","Azerbaijan",40.11,46.04,5336,"AAZ11101",NA,NA,NA,NA,NA,2.83,4.78,5.67,7.25,8.95,10.2
"125","AZ11102","Latchin","Klbcr-La_n (de jure)","Azerbaijan",39.64,46.55,3782,"AAZ11102",NA,NA,NA,0.43,1.06,2.33,4.99,6.19,7.83,10.15,11.9
"126","BE01101","Minsk","______","Belarus",53.9,27.57,652,"ABE01101",22.49,25.53,90.91,123.61,237.5,515.98,916.95,1275.8,1612.47,1716.78,1850.4
"127","BE02101","Baranabitchi","____狏","Belarus",53.13,26.03,639,"ABE02101",NA,NA,NA,NA,27.4,58.06,101.47,130.65,159.32,168.12,168.67
"128","BE02102","Belaazersk","____狏","Belarus",52.47,25.17,515,"ABE02102",NA,NA,NA,NA,NA,NA,6.34,9.1,10.7,13.2,12.5
"129","BE02103","Brest","____狏","Belarus",52.1,23.7,485,"ABE02103",11.3,17.38,46.57,42.94,41.4,73.61,121.63,177.25,258.02,229.71,312.78
"130","BE02104","Byaroza","____狏","Belarus",52.53,24.98,498,"ABE02104",NA,NA,NA,NA,NA,5.59,9.29,13.11,23.2,29.8,29.39
"131","BE02106","Gantsavitchy","____狏","Belarus",52.76,26.43,479,"ABE02106",NA,NA,NA,NA,NA,3.56,5.23,8.46,14.12,14.8,13.85
"132","BE02108","Dragitchyn","____狏","Belarus",52.19,25.15,469,"ABE02108",NA,NA,1.71,NA,NA,3.51,7.03,9.7,13.4,15.06,14.69
"133","BE02109","Zhabinka","____狏","Belarus",52.2,24.02,459,"ABE02109",NA,NA,NA,NA,NA,4.7,6.86,8.78,10.85,12.76,13.16
"134","BE02110","Ivanava","____狏","Belarus",52.13,25.55,465,"ABE02110",NA,NA,NA,NA,NA,3.87,5.4,9.91,13.58,16.14,16.18
"135","BE02111","Ivatsevitchy","____狏","Belarus",52.71,25.34,567,"ABE02111",NA,NA,NA,NA,NA,5.19,7.85,11.18,17.22,24.02,23.04
"136","BE02113","Kobryn","____狏","Belarus",52.22,24.37,485,"ABE02113",5.87,6.21,10.41,13.58,15.3,13.69,24.93,31.81,44.83,50.76,51.26
"137","BE02115","Louninets","____狏","Belarus",52.25,26.8,436,"ABE02115",NA,NA,NA,NA,8.3,10.33,14.26,18.54,23.21,23.9,23.71
"138","BE02116","Lyakhavitchy","____狏","Belarus",53.04,26.26,643,"ABE02116",NA,NA,NA,NA,NA,4.49,5.5,7.73,10.66,11.56,10.94
"139","BE02117","Malaryta","____狏","Belarus",51.78,24.08,534,"ABE02117",NA,NA,NA,NA,NA,4.63,6.84,8.49,9.67,11.5,11.72
"140","BE02118","Mikashevitchy","____狏","Belarus",52.22,27.47,NA,"ABE02118",NA,NA,NA,NA,NA,3.44,4.06,7.62,12.78,13.74,12.99
"141","BE02119","Pinsk","____狏","Belarus",52.12,26.07,485,"ABE02119",7.34,10.37,28.37,21.9,19.5,41.55,61.75,89.85,118.64,130.26,131.36
"142","BE02120","Prouzhany","____狏","Belarus",52.56,24.46,541,"ABE02120",3.91,5.59,7.63,NA,NA,7.12,12.17,17.26,23.08,19.96,18.95
"143","BE02121","Stolin","____狏","Belarus",51.88,26.85,357,"ABE02121",NA,NA,NA,NA,NA,5.79,7.07,8.72,10.49,12.24,12.37
"144","BE03101","Baran","_______狏","Belarus",54.58,30.32,600,"ABE03114",NA,NA,NA,0.88,1.94,6.55,10.34,9.87,13.56,12.38,11.6
"145","BE03102","Braslau","_______狏","Belarus",55.63,27.05,456,"ABE03102",NA,NA,NA,NA,NA,4.17,5.77,7.7,9.55,10.1,9.53
"146","BE03104","Vitebsk","_______狏","Belarus",55.19,30.19,518,"ABE03104",17.86,20.73,65.87,91.2,167.3,148.3,230.8,296.61,350,341.72,351.23
"147","BE03105","Garadok","_______狏","Belarus",55.46,30,577,"ABE03105",2.34,3.36,5.02,5.52,6.26,7.6,9.51,12.26,14.34,14.04,12.77
"148","BE03106","Glybokae","_______狏","Belarus",55.13,27.68,524,"ABE03106",NA,NA,NA,NA,NA,7.36,11.93,15.39,17.02,19.5,18.25
"149","BE03108","Dokshytsy","_______狏","Belarus",54.9,27.76,659,"ABE03108",NA,1.55,3.64,NA,NA,2.25,3.82,4.72,6.88,7.04,6.62
"150","BE03109","Doubrouna","_______狏","Belarus",54.57,30.69,593,"ABE03109",NA,NA,NA,7.92,6.56,4.9,6.33,7.81,9.65,9.08,7.91
"151","BE03110","Lepel","_______狏","Belarus",54.88,28.7,544,"ABE03110",1.91,2.34,6.28,4.8,6.33,9.68,13.11,16.48,19.09,18.82,17.35
"152","BE03112","Novaloukoml","_______狏","Belarus",54.67,29.15,NA,"ABE03112",NA,NA,NA,NA,NA,NA,6.74,11.47,13.76,15.04,13.76
"153","BE03113","Navapoltsk","_______狏","Belarus",55.53,28.65,NA,"ABE03116",NA,NA,NA,NA,NA,1.21,40.11,67.11,92.7,103,98.71
"154","BE03114","Orsha","_______狏","Belarus",54.52,30.41,515,"ABE03114",3.02,2.87,13.06,21.31,53.75,64.54,100.64,112.4,123.13,124.74,117.23
"155","BE03115","Pastavy","_______狏","Belarus",55.12,26.83,472,"ABE03115",NA,NA,NA,NA,3.4,10.57,15.14,17.98,19.02,20.78,19.84
"156","BE03116","Polatsk","_______狏","Belarus",55.49,28.8,364,"ABE03116",10.28,11.97,20.29,21.46,29.58,44.98,64.18,71.15,76.84,82.68,83.09
"157","BE03118","Talatchyn","_______狏","Belarus",54.41,29.7,643,"ABE03118",NA,NA,NA,3.6,4.56,6.54,7.43,8.44,11.41,10.52,10.1
"158","BE04104","Gomel","__________狏","Belarus",52.44,30.98,449,"ABE04104",NA,10.11,36.78,82.95,139.12,168.27,272.25,382.79,500.85,478.91,487.2
"159","BE04105","Dobroush","__________狏","Belarus",52.41,31.32,396,"ABE04105",NA,NA,NA,5.92,13.82,14.27,16.81,19.18,20.75,19.4,18.29
"160","BE04107","Zhlobin","__________狏","Belarus",52.89,30.03,442,"ABE04107",NA,NA,NA,10.72,19.3,19.22,25.36,35.42,56.7,72.16,75.7
"161","BE04108","Zhytkavitchy","__________狏","Belarus",52.23,27.86,396,"ABE04108",NA,NA,NA,2.88,4.02,6.73,7.88,11.18,15.52,16.98,15.88
"162","BE04109","Kalinkavitchy","__________狏","Belarus",52.13,29.33,413,"ABE04110",NA,NA,NA,6.1,9.8,14.94,23.92,33.41,40.98,37.96,38.38
"163","BE04110","Mazyr","__________狏","Belarus",52.05,29.27,390,"ABE04110",4.11,4.6,8.08,9.54,17.45,26.43,48.8,73.46,100.25,111,109.43
"164","BE04112","Petrykau","__________狏","Belarus",52.13,28.49,360,"ABE04112",NA,NA,NA,5.82,6.32,7.17,8.5,10.09,11.98,11.09,10.53
"165","BE04113","Ragatchou","__________狏","Belarus",53.09,30.05,383,"ABE04113",2.54,3.38,9.04,10.33,15.17,10.16,16.01,25.07,35.76,35.18,33.8
"166","BE04114","Retchytsa","__________狏","Belarus",52.36,30.39,403,"ABE04114",3.14,5.66,9.28,16.49,29.8,30.6,48.39,60.33,69.43,66.4,64.65
"167","BE04115","Svetlagorsk","__________狏","Belarus",52.63,29.73,446,"ABE04115",NA,NA,NA,NA,NA,5.77,40.27,54.77,69.48,72.34,69.76
"168","BE04117","Khoiniki","__________狏","Belarus",51.9,29.97,NA,"ABE04117",NA,NA,NA,4.76,6.41,10.13,9.47,15.12,17.11,14.51,13.85
"169","BE04201","Leltchytsy","__________狏","Belarus",51.78,28.33,387,"ABE04201",NA,NA,NA,NA,NA,3.31,4.95,6.68,8.68,9.27,10.68
"170","BE05101","Ashmyany","___________狏","Belarus",54.42,25.93,711,"ABE05101",1.69,1.73,7.21,NA,NA,6.9,9.62,12.46,14.75,14.98,14.93
"171","BE05102","Byarozauka","___________狏","Belarus",53.72,25.5,NA,"ABE05102",NA,NA,NA,NA,NA,3.68,5.6,8.52,11.42,12.08,10.75
"172","BE05103","Vaukavysk","___________狏","Belarus",53.15,24.46,620,"ABE05103",2.99,2.78,10.32,NA,16.7,18.28,23.27,29.07,40.37,46.72,44.04
"173","BE05104","Grodna","___________狏","Belarus",53.68,23.81,442,"ABE05104",15.53,15.01,46.92,48.48,49.2,72.94,132.47,194.78,270.54,309.45,332.87
"174","BE05107","Lida","___________狏","Belarus",53.88,25.3,469,"ABE05107",NA,NA,9.32,22.5,33.4,28.54,47.58,65.5,91.01,99.19,97.92
"175","BE05108","Masty","___________狏","Belarus",53.41,24.53,935,"ABE05108",NA,NA,NA,NA,NA,7.9,11.59,13.63,16.49,17.79,16.35
"176","BE05109","Navagroudak","___________狏","Belarus",53.6,25.83,935,"ABE05109",3.74,5.84,7.89,11.61,13.8,12.62,19.37,22.42,29.51,30.5,29.3
"177","BE05111","Skidzel","___________狏","Belarus",53.59,24.24,393,"ABE05111",NA,NA,NA,NA,NA,5.49,7.76,9.23,10.92,11.17,10.79
"178","BE05112","Slonim","___________狏","Belarus",53.09,25.32,410,"ABE05112",7.56,8.31,15.86,22.73,26.7,20.39,30.28,36.66,45.74,51.64,48.81
"179","BE05113","Smargon","___________狏","Belarus",54.58,26.4,551,"ABE05113",NA,NA,NA,NA,NA,6.48,10.1,16.5,30.84,36.2,36.36
"180","BE05114","Shtchoutchyn","___________狏","Belarus",53.61,24.74,567,"ABE05114",NA,NA,NA,NA,NA,6.57,10.34,12.86,15.36,16.08,15.05
"181","BE06101","Asipobitchy","__________狏","Belarus",53.29,28.64,416,"ABE06101",NA,NA,NA,4.01,13.72,15.78,19.71,27.41,33.8,35.18,32.28
"182","BE06102","Babrouisk","__________狏","Belarus",53.15,29.23,429,"ABE06102",20.71,17.1,34.34,39.28,84.08,97.53,137.54,192.21,221.17,220.76,215.38
"183","BE06103","Bykhau","__________狏","Belarus",53.52,30.25,465,"ABE06103",5.29,6.25,6.38,7.26,11.03,13.23,17.37,18.05,20.05,17.73,16.97
"184","BE06104","Gorki","__________狏","Belarus",54.28,30.99,620,"ABE06104",NA,NA,6.74,8.53,12.48,15.1,22.12,26.63,30.91,33.54,32.17
"185","BE06105","Kastsyoukovitchy","__________狏","Belarus",53.34,32.05,488,"ABE06105",NA,NA,NA,3.24,4.65,8.12,7,9.21,13.24,16.59,15.92
"186","BE06107","Klimavitchy","__________狏","Belarus",53.61,31.95,587,"ABE06107",1.85,2.27,4.71,7.59,9.55,11.59,12.72,14.95,16.54,16.37,16.83
"187","BE06109","Krytchau","__________狏","Belarus",53.7,31.71,472,"ABE06109",NA,NA,NA,6.36,15.99,19.03,25.68,30.45,32.91,28.75,27.02
"188","BE06110","Mogileu","__________狏","Belarus",53.91,30.34,613,"ABE06110",23.1,22.82,43.12,46.56,99.43,121.71,202.31,290.36,359.19,361.64,359.6
"189","BE06111","Mstsislau","__________狏","Belarus",54.02,31.73,675,"ABE06111",5.5,6.6,8.51,8.09,8.07,8.05,9.73,10.16,11.23,11.74,10.75
"190","BE06113","Tchavousy","__________狏","Belarus",53.81,30.98,501,"ABE06113",5.15,4.77,4.96,5.1,5.55,6.34,7.78,10.03,12.46,11.04,10.71
"191","BE06115","Shklou","__________狏","Belarus",54.21,30.29,469,"ABE06115",NA,NA,NA,8.29,8.09,7.78,9.87,11.81,14.89,16.14,16.37
"192","BE06201","Byalynitchy","__________狏","Belarus",54,29.7,587,"ABE06201",NA,NA,NA,2.43,3.07,4.43,4.93,8.07,10.63,10.59,10.67
"193","BE07101","Barysau","_______狏","Belarus",54.23,28.49,603,"ABE07101",5.68,5.66,15.06,23.95,49.11,59.28,84.11,111.67,143.79,150.52,146.91
"194","BE07102","Berazino","_______狏","Belarus",53.84,29,482,"ABE07102",NA,NA,NA,2.97,3.6,4.85,6.86,9.27,12.67,13.18,12.01
"195","BE07103","Valozhyn","_______狏","Belarus",54.08,26.53,734,"ABE07103",NA,NA,NA,NA,NA,4.78,6.26,7.91,10.64,11.54,10.54
"196","BE07104","Vileika","_______狏","Belarus",54.5,26.92,495,"ABE07104",NA,2.12,3.56,NA,NA,8.22,12.24,20.75,28.08,30,26.79
"197","BE07105","Dzyarzhynsk","_______狏","Belarus",53.69,27.14,613,"ABE07105",NA,NA,NA,NA,NA,7.78,10.89,15.79,22.9,24.22,25.29
"198","BE07106","Zhodzina","_______狏","Belarus",54.1,28.33,603,"ABE07106",NA,NA,NA,NA,NA,6.59,22.08,33.93,53.74,60.25,61.9
"199","BE07107","Zaslaue","_______狏","Belarus",54,27.28,731,"ABE07107",NA,NA,NA,1.48,2.54,5.84,4.4,8.44,10.44,13.34,14.25
"200","BE07109","Kletsk","_______狏","Belarus",53.07,26.64,603,"ABE07109",NA,NA,NA,NA,NA,4.05,5.7,6.95,10.51,10.9,10.8
"201","BE07111","Lagoisk","_______狏","Belarus",54.21,27.85,725,"ABE07111",NA,NA,NA,NA,NA,5.55,4.23,5.32,7.99,9.74,10.99
"202","BE07112","Lyouban","_______狏","Belarus",52.8,28,383,"ABE07112",NA,NA,NA,2.16,2.66,3.67,6.7,8.39,11.05,11.76,11.22
"203","BE07113","Maladzetchna","_______狏","Belarus",54.32,26.85,557,"ABE07113",NA,NA,NA,NA,6.6,28.38,50.41,72.61,91.73,97.68,94.08
"204","BE07114","Marina Gorka","_______狏","Belarus",53.52,28.15,538,"ABE07114",NA,NA,NA,NA,NA,9.25,11.3,15.16,18.87,23.6,21.37
"205","BE07116","Nyasvizh","_______狏","Belarus",53.22,26.67,597,"ABE07116",NA,4.98,8.46,NA,NA,6.71,9.01,11.98,14.04,14.42,14.16
"206","BE07117","Saligorsk","_______狏","Belarus",52.8,27.53,449,"ABE07117",NA,NA,NA,NA,NA,0.05,38.26,65.15,92.74,101.2,102.69
"207","BE07118","Sloutsk","_______狏","Belarus",53.03,27.56,446,"ABE07118",8.25,7.49,14.35,14.3,21.95,22.74,35.61,45.18,57.56,62.72,61.44
"208","BE07119","Smalyavintchy","_______狏","Belarus",54.03,28.08,620,"ABE07119",NA,NA,NA,3.12,4.6,8.35,9.62,11.4,13.59,14.1,15.2
"209","BE07120","Starya Darogi","_______狏","Belarus",53.04,28.27,459,"ABE07120",NA,NA,NA,1.77,2.65,4.92,6.04,8.21,10.98,11.84,11.01
"210","BE07121","Stoubtsy","_______狏","Belarus",53.48,26.75,446,"ABE07121",NA,NA,NA,NA,NA,5.66,7.35,9.83,13.61,16.7,15.48
"211","BE07123","Fanipal","_______狏","Belarus",53.75,27.33,NA,"ABE07123",NA,NA,NA,NA,NA,NA,NA,NA,8.73,11.12,12.84
"212","BE07124","Tcheven","_______狏","Belarus",53.71,28.43,541,"ABE07124",1.88,2.78,4.57,4.55,5.72,8.16,10.14,11.46,11.46,10.84,10.09
"213","ES01105","Haapsalu","Estonia","Estonia",58.93,23.53,0.95,"AES01105",1.23,3.21,2.88,4.38,5.25,8.57,11.48,13.46,15.18,11.98,11.62
"214","ES01115","Kohtla-J_rve","Estonia","Estonia",59.4,27.28,NA,"AES01115",NA,NA,NA,NA,2.6,56.05,68.32,72.68,76.58,58.99,55.58
"215","ES01117","Kuressaare","Estonia","Estonia",58.25,22.48,2.57,"AES01117",3.74,4.6,3.45,3.7,5.23,9.72,12.14,14.26,16.36,14.97,14.98
"216","ES01120","Maardu","Estonia","Estonia",59.48,25.02,NA,"AES01120",NA,NA,NA,NA,NA,4.22,6.88,10,16.1,16.71,16.53
"217","ES01123","Narva","Estonia","Estonia",59.38,28.2,5.02,"AES01123",6.13,16.6,16.6,25.73,20.6,27.63,57.86,72.82,81.36,68.12,65.88
"218","ES01129","P_rnu","Estonia","Estonia",58.38,24.5,2.97,"AES01129",5.68,12.9,12.97,19.09,22.1,36.07,46.32,51.25,53.89,45.04,44.08
"219","ES01133","Rakvere","Estonia","Estonia",59.35,26.35,1.28,"AES01133",1.38,5.89,3.51,8.58,10.4,14.3,17.89,19.01,20.12,17.01,16.58
"220","ES01137","Sillam_e","Estonia","Estonia",59.4,27.77,NA,"AES01137",NA,NA,NA,NA,NA,8.21,13.51,16.05,20.28,17.01,16.18
"221","ES01140","Tallinn","Estonia","Estonia",59.43,24.75,23.26,"AES01140",20.28,64.57,50.49,127.34,160.5,281.71,362.71,429.73,482.04,398.43,399.34
"222","ES01143","Tartu","Estonia","Estonia",58.38,26.72,12.31,"AES01143",12.91,42.31,29.97,53.04,57,74.26,90.46,104.52,113.98,101.14,103.28
"223","ES01146","Valga","Estonia","Estonia",57.78,26.03,0.83,"AES01146",2.76,12.86,10.92,9.43,12,18.23,24,26.52,26.37,20.78,19.76
"224","ES01147","Viljandi","Estonia","Estonia",58.37,25.6,1.55,"AES01147",2.09,7.74,5.33,10.24,13.1,17.92,20.81,22.37,22.97,20.61,19.96
"225","ES01149","Vru","Estonia","Estonia",57.85,27,1.02,"AES01149",1.47,4.15,2.7,5.47,6.6,10.7,15.4,16.9,17.41,14.8,14.38
"226","GE01101","Tbilisi","Tbilisi","Georgia",41.73,44.79,1482,"AGE01101",29.74,38.38,159.59,282.92,519.22,703.02,901.29,1066.02,1259.69,1073.35,1122.3
"227","GE02101","Batoumi","Acharis AR","Georgia",41.64,41.63,29,"AGE02101",NA,NA,28.51,45.45,70.02,82.33,100.6,122.82,136.61,121.81,123.5
"228","GE02102","Kobouleti","Acharis AR","Georgia",41.82,41.78,22,"AGE02102",NA,NA,NA,1.79,6.13,12.6,18.05,18.28,20.93,18.56,19.3
"229","GE03102","Ozourgeti","Guria","Georgia",41.93,41.98,NA,"AGE03102",NA,0.31,4.71,5.59,11.42,19.13,21.68,22.39,23.4,18.71,18.6
"230","GE04103","Zestaponi","Imereti","Georgia",42.11,43.05,623,"AGE04103",NA,NA,2.01,5.42,13.73,17.21,21.7,21.1,26.1,24.16,24.8
"231","GE04105","Samtrediya","Imereti","Georgia",42.15,42.34,118,"AGE04105",NA,NA,NA,13.81,13.02,19.58,21.97,34,34.47,29.76,30
"232","GE04107","Tqibuli","Imereti","Georgia",42.34,42.99,2280,"AGE04107",NA,NA,NA,1.03,6.1,22.7,23.15,21.82,21.87,14.46,13.9
"233","GE04108","Koustaisi","Imereti","Georgia",42.26,42.72,396,"AGE04108",3.91,3.86,32.48,45.75,77.52,128.2,160.94,194.3,234.87,185.97,192.5
"234","GE04109","Tskaltoubo","Imereti","Georgia",42.34,42.6,452,"AGE04108",NA,NA,NA,NA,3.41,11.58,16.57,17.66,21.28,16.84,17.1
"235","GE04110","Tchiatoura","Imereti","Georgia",42.3,43.3,1646,"AGE04110",NA,NA,NA,4.43,13.93,21.52,25.47,26.72,29.23,13.84,14.1
"236","GE04111","Khoni","Imereti","Georgia",42.32,42.43,410,"AGE04111",NA,NA,NA,9.01,8.95,10.79,11.35,14.55,14.43,11.32,11.1
"237","GE05104","Telavi","Kakheti","Georgia",41.92,45.49,2240,"AGE05104",3.09,4.8,13.93,8.77,14.46,15.33,21.18,25.27,28.33,21.81,20.5
"238","GE05106","Sagareyo","Kakheti","Georgia",41.74,45.33,2227,"AGE05106",NA,NA,NA,NA,NA,8.07,9.99,11.66,14.56,12.57,11.7
"239","GE08102","Zougdidi","Samegrelo da Zemo Svaneti","Georgia",42.51,41.87,396,"AGE08102",NA,NA,3.41,5.46,15.06,31.08,39.9,45.17,50.02,68.89,74.2
"240","GE08104","Senaki","Samegrelo da Zemo Svaneti","Georgia",42.27,42.08,88,"AGE08104",NA,NA,1.25,5.48,12.12,17.91,25.35,27.03,29.16,28.08,28.6
"241","GE08105","Poti","Samegrelo da Zemo Svaneti","Georgia",42.15,41.67,NA,"AGE08105",NA,NA,7.35,13.11,25.46,42.07,45.98,48.51,50.92,47.15,47.7
"242","GE09102","Akhaltsikhe","Samtskhe-Javakheti","Georgia",41.87,44.35,2818,"AGE09102",NA,13.3,15.36,10.02,12.18,16.87,18.97,19.74,24.57,18.45,19.5
"243","GE09103","Boryomi","Samtskhe-Javakheti","Georgia",41.84,43.38,2956,"AGE09103",NA,NA,NA,5.24,14.32,15.33,16.32,18.06,19.01,14.45,13.7
"244","GE10101","Bolnisi","Kvemo Kartli","Georgia",41.45,44.54,1712,"AGE10101",NA,NA,NA,5.65,7.14,12.42,11.5,12.44,15.05,9.94,11.6
"245","GE10102","Garbadani","Kvemo Kartli","Georgia",41.45,45.09,1023,"AGE10102",NA,NA,NA,NA,NA,NA,9.13,13.66,17.18,11.86,14.8
"246","GE10105","Marneouli","Kvemo Kartli","Georgia",41.46,44.81,1312,"AGE10105",NA,NA,NA,NA,NA,12.4,15.83,19.57,27.56,20.07,23.1
"247","GE10106","Roustavi","Kvemo Kartli","Georgia",41.55,45.01,1125,"AGE01101",NA,NA,NA,NA,NA,62.4,98.21,129.08,158.66,116.38,119.5
"248","GE11101","Gori","Shida Kartli","Georgia",41.97,44.11,1889,"AGE11101",8.63,3.38,10.27,10.19,19.63,35.06,48.18,55.98,68.92,49.52,54.2
"249","GE11102","Kaspi","Shida Kartli","Georgia",41.92,44.42,1712,"AGE11102",NA,NA,NA,NA,4.73,9.14,12.26,13.82,17.31,15.23,15.6
"250","GE11104","Khaskhouri","Shida Kartli","Georgia",41.99,43.59,2267,"AGE11104",NA,NA,NA,7.62,15.56,18.65,24.47,28.64,32.64,28.56,29
"251","GE12101","Akwa (Sokhoumi)","Apsny Ahwyntkarra","Georgia",43,41.02,0,"AGE12101",NA,NA,8,20.03,44.29,64.73,101.8,114.37,121.41,43.72,64.48
"252","GE12103","Gagra","Apsny Ahwyntkarra","Georgia",43.33,40.22,91,"AGE12103",NA,NA,NA,3.66,9.81,14.02,23.03,24.41,26.64,10.72,11.2
"253","KA011","Almaty","_____䋠","Kazakhstan",43.25,76.95,2828,"AKA011",NA,NA,22.74,NA,NA,457.71,729.63,909.64,1127.88,1156.65,1365.63
"254","KA021","Astana","_____","Kazakhstan",51.18,71.43,1112,"AKA021",NA,NA,9.69,NA,NA,102.28,179.51,233.64,277.37,419.77,613.01
"255","KA03101","Akkel","________","Kazakhstan",52,70.93,1240,"AKA03101",NA,NA,NA,NA,NA,17.06,18.24,17.87,19.66,14.34,14.22
"256","KA03102","Atbasar","________","Kazakhstan",51.8,68.33,925,"AKA03102",NA,NA,3.04,NA,NA,34.32,37.23,36.25,39.16,30.08,30.44
"257","KA03104","Ereimentaou","________","Kazakhstan",51.62,73.11,1282,"AKA03104",NA,NA,NA,NA,NA,11,15.28,15.13,15.97,13.45,12.52
"258","KA03105","Esil","________","Kazakhstan",51.96,66.4,695,"AKA03105",NA,NA,NA,NA,NA,9.89,14.94,14.37,17.01,11.9,11.55
"259","KA03106","Kokshetau","________","Kazakhstan",53.28,69.39,780,"AKA03106",NA,NA,4.96,NA,NA,52.91,80.56,103.16,136.76,123.54,135.11
"260","KA03107","Makinsk","________","Kazakhstan",52.63,70.42,1249,"AKA03107",NA,NA,NA,NA,NA,23.01,22.85,21.91,23.31,17.56,16.75
"261","KA03108","Stepnogor","________","Kazakhstan",52.35,71.89,984,"AKA03108",NA,NA,NA,NA,NA,NA,25.96,45.79,58.2,43.8,46.71
"262","KA03110","Schoutchinsk","________","Kazakhstan",52.93,70.2,1279,"AKA03110",NA,NA,NA,NA,NA,39.21,40.43,47.95,55.54,43,44.11
"263","KA04101","Aktobe","__ө__","Kazakhstan",50.3,57.18,725,"AKA04101",NA,NA,2.82,NA,NA,96.68,149.91,190.57,253.53,251.09,345.69
"264","KA04102","Alga","__ө__","Kazakhstan",49.9,57.34,816,"AKA04102",NA,NA,NA,NA,NA,11.75,14.22,16.42,17.91,15.92,19.71
"265","KA04103","Embi","__ө__","Kazakhstan",48.83,58.14,770,"AKA04103",NA,NA,NA,NA,NA,9.64,17.82,12.18,16.04,12.46,11.21
"266","KA04105","Kandyagash","__ө__","Kazakhstan",49.47,57.42,915,"AKA04105",NA,NA,NA,NA,NA,8.38,9.48,11.05,26.69,25.96,29.17
"267","KA04107","Khromtau","__ө__","Kazakhstan",50.25,58.43,1345,"AKA04107",NA,NA,NA,NA,NA,7.67,12.03,17.92,24.44,22.32,24.09
"268","KA04108","Shalkar","__ө__","Kazakhstan",47.83,59.6,564,"AKA04108",NA,NA,NA,NA,NA,17.24,19.38,22.15,28.9,25.93,26.57
"269","KA04201","Shoubarkoudyk","__ө__","Kazakhstan",49.14,56.49,583,"AKA04201",NA,NA,NA,NA,NA,8.35,9.19,11.13,12.22,10.96,11.2
"270","KA05101","Esik","_____䋠","Kazakhstan",43.35,77.46,3520,"AKA05101",NA,NA,NA,NA,NA,11.15,21.6,25.21,26.96,31.3,34.36
"271","KA05102","Zharkent","_____䋠","Kazakhstan",44.16,80,2060,"AKA05102",NA,NA,16.09,NA,NA,12.43,19.17,24,31.11,32.71,33.35
"272","KA05104","Kapshagai","_____䋠","Kazakhstan",43.88,77.08,1578,"AKA05104",NA,NA,NA,NA,NA,14.07,15.07,25.63,38.3,33.99,39.86
"273","KA05105","Kaskelen","_____䋠","Kazakhstan",43.2,76.62,2814,"AKA05105",NA,NA,NA,NA,NA,13.9,23.85,26.85,30.87,35.94,58.42
"274","KA05107","Sarkant","_____䋠","Kazakhstan",45.41,79.92,2591,"AKA05107",NA,NA,NA,NA,NA,12.35,18.3,19.75,20.91,14.8,14.31
"275","KA05108","Talgar","_____䋠","Kazakhstan",43.3,77.23,3195,"AKA05108",NA,NA,NA,NA,NA,20.07,31.27,36.95,43.65,44.11,45.53
"276","KA05109","Taldykorgai","_____䋠","Kazakhstan",45.02,78.37,1975,"AKA05109",NA,NA,NA,NA,NA,41.42,60.6,87.95,119.15,99.54,123.04
"277","KA05110","Tekeli","_____䋠","Kazakhstan",44.83,78.82,3923,"AKA05110",NA,NA,NA,NA,NA,30.05,29.85,28.54,31.43,23.62,26.06
"278","KA05111","Ousharal","_____䋠","Kazakhstan",46.17,80.94,1309,"AKA05111",NA,NA,NA,NA,NA,9.92,14.25,18.57,17.91,15.29,15.99
"279","KA05112","Oushtebe","_____䋠","Kazakhstan",45.24,77.98,1368,"AKA05112",NA,NA,NA,NA,NA,21.03,24.48,24.55,26.03,21.85,24.9
"280","KA05201","Saryezek","_____䋠","Kazakhstan",44.36,77.98,3093,"AKA05201",NA,NA,NA,NA,NA,13.27,13.29,13.74,14.59,12.03,12.91
"281","KA05202","Oteguen Batyr","_____䋠","Kazakhstan",43.33,77.05,2270,"AKA011",NA,NA,NA,NA,NA,NA,6.59,11.77,16.66,18.04,20.36
"282","KA05204","Karaboulak","_____䋠","Kazakhstan",44.91,78.49,2486,"AKA05109",NA,NA,NA,NA,NA,6.69,21.02,20.45,19.09,14.53,16.04
"283","KA05205","Boraldai","_____䋠","Kazakhstan",43.36,76.86,2276,"AKA011",NA,NA,NA,NA,NA,6.61,10.08,12.97,21.01,20.95,27.19
"284","KA05206","Balpyk","_____䋠","Kazakhstan",44.89,78.21,1919,"AKA05206",NA,NA,NA,NA,NA,12.91,15.11,15.56,16.69,12.07,12.65
"285","KA06101","Atyrau/guriev","_䋠_","Kazakhstan",47.12,51.88,-72,"AKA06101",1.02,2.17,9.32,NA,NA,78.14,114.28,130.92,149.26,144.05,165.39
"286","KA06102","Koulsary","_䋠_","Kazakhstan",46.98,54.02,-39,"AKA06102",NA,NA,NA,NA,NA,12.75,16.43,19.73,32.65,41.48,51.1
"287","KA06201","Balykshy","_䋠_","Kazakhstan",47.07,51.87,-62,"AKA06101",NA,NA,NA,NA,NA,16.8,22.4,22.62,16.89,15.85,12.95
"288","KA06202","Dossor","_䋠_","Kazakhstan",47.53,52.98,-65,"AKA06202",NA,NA,NA,NA,NA,9.51,8.26,8.81,8.6,9.83,11.47
"289","KA06203","Inderbor","_䋠_","Kazakhstan",48.55,51.78,82,"AKA06203",NA,NA,NA,NA,NA,5.43,8.9,9.76,11.23,11.46,12.92
"290","KA06204","Makat","_䋠_","Kazakhstan",47.65,53.32,-72,"AKA06204",NA,NA,NA,NA,NA,5.9,9.12,10.39,14.01,12.99,14.27
"291","KA07101","Arsai","__䋠 ________","Kazakhstan",51.17,52.99,206,"AKA07101",NA,NA,NA,NA,NA,9.47,10.52,10.4,18.24,31.93,32.87
"292","KA07102","Oral","__䋠 ________","Kazakhstan",51.23,51.37,108,"AKA07102",12.13,17.64,36.47,NA,NA,103.91,134.16,167.35,199.84,195.67,202.16
"293","KA07201","Zatchagansk","__䋠 ________","Kazakhstan",51.18,51.34,95,"AKA07102",NA,NA,NA,NA,NA,NA,NA,10.36,12.09,15.79,27.07
"294","KA08101","Zhanatas","_______","Kazakhstan",43.57,69.75,1686,"AKA08101",NA,NA,NA,NA,NA,NA,11.48,30.1,53.4,24.7,20.73
"295","KA08102","Karatau","_______","Kazakhstan",43.17,70.47,1837,"AKA08102",NA,NA,NA,NA,NA,NA,26.96,30.91,41.83,26.87,26.64
"296","KA08103","Taraz","_______","Kazakhstan",42.9,71.37,2004,"AKA08103",NA,NA,11.72,NA,NA,113.35,187.16,263.79,306.72,328.79,320.63
"297","KA08104","Shou","_______","Kazakhstan",43.6,73.76,1512,"AKA08104",NA,NA,NA,NA,NA,29.63,34.31,33.39,37.4,33.94,36.53
"298","KA08201","Lougovoe","_______","Kazakhstan",42.95,72.71,2385,"AKA08201",NA,NA,NA,NA,NA,9.29,9.6,9.48,10.45,9.97,10.24
"299","KA09101","Abai","__狗_Ж____","Kazakhstan",49.63,72.85,1656,"AKA09104",NA,NA,NA,NA,NA,17.87,34.25,39.39,46.53,30.1,25.55
"300","KA09102","Balkash","__狗_Ж____","Kazakhstan",46.85,75,1184,"AKA09102",NA,NA,NA,NA,NA,53.03,75.97,78.15,86.61,65.18,68.83
"301","KA09103","Zhezkazgan","__狗_Ж____","Kazakhstan",47.78,67.77,1112,"AKA09103",NA,NA,NA,NA,NA,32.44,62.5,89.4,108.82,90.22,86.23
"302","KA09104","Karagandy","__狗_Ж____","Kazakhstan",49.8,73.1,1722,"AKA09104",NA,NA,NA,NA,NA,397.08,523.27,571.88,613.8,432.05,459.78
"303","KA09107","Priozer","__狗_Ж____","Kazakhstan",46.2,73.7,NA,"AKA09107",NA,NA,NA,NA,NA,NA,NA,NA,NA,11.4,13.48
"304","KA09108","Saran","__狗_Ж____","Kazakhstan",49.78,72.85,1571,"AKA09104",NA,NA,NA,NA,NA,39.81,49.05,54.88,63.62,40.86,42.06
"305","KA09109","Sotbaev","__狗_Ж____","Kazakhstan",47.9,67.54,1364,"AKA09103",NA,NA,NA,NA,NA,11.48,32.86,48.87,58.72,60.17,60.11
"306","KA09110","Temirtau","__狗_Ж____","Kazakhstan",50.05,72.95,1686,"AKA09104",NA,NA,NA,NA,NA,76.73,166.48,213.03,212.38,164,169.59
"307","KA09111","Shakhtinsk","__狗_Ж____","Kazakhstan",49.71,72.59,1646,"AKA09104",NA,NA,NA,NA,NA,NA,40.16,50.38,64.86,38.37,36
"308","KA09201","Atasou","__狗_Ж____","Kazakhstan",48.68,71.64,1584,"AKA09201",NA,NA,NA,NA,NA,12.31,12.82,15.57,16.01,14.09,14.27
"309","KA10101","Arkalyk","_________","Kazakhstan",50.25,66.91,1095,"AKA10101",NA,NA,NA,NA,NA,3.61,15.11,47.96,62.37,33.08,28.17
"310","KA10102","Zhitikara","_________","Kazakhstan",52.19,61.2,833,"AKA10102",NA,NA,NA,NA,NA,14.67,32.17,39.42,48.2,34.27,33.59
"311","KA10103","Kostanai","_________","Kazakhstan",53.17,63.58,485,"AKA10103",NA,NA,14.28,NA,NA,86.38,123.52,164.5,224.6,210.95,214.96
"312","KA10104","Lisakovsk","_________","Kazakhstan",52.54,62.49,725,"AKA10104",NA,NA,NA,NA,NA,NA,11.21,24.6,33.13,34.49,36.62
"313","KA10105","Roudnyi","_________","Kazakhstan",52.96,63.12,449,"AKA10105",NA,NA,NA,NA,NA,36.64,96.04,109.71,124.3,106.47,109.66
"314","KA10201","Zatobolsk","_________","Kazakhstan",53.2,63.69,587,"AKA10103",NA,NA,NA,NA,NA,4.68,12.86,16.74,20.27,19.49,22.91
"315","KA10202","Karabalyk","_________","Kazakhstan",53.3,62.23,685,"AKA10202",NA,NA,NA,NA,NA,9.98,10.44,12.34,13.8,10.94,11.08
"316","KA10203","Kashar","_________","Kazakhstan",53.39,62.93,626,"AKA10203",NA,NA,NA,NA,NA,NA,NA,5.41,13.27,10.9,11.36
"317","KA11101","Aralsk","_______","Kazakhstan",46.8,61.67,177,"AKA11101",NA,NA,NA,NA,NA,19.62,37.72,32.09,30.8,29.71,29.99
"318","KA11102","Baikonyr","_______","Kazakhstan",45.67,63.33,1243,"AKA11102",NA,NA,NA,NA,NA,NA,NA,NA,70.8,46.72,36.18
"319","KA11104","Kyzylorda","_______","Kazakhstan",44.85,65.51,452,"AKA11104",NA,NA,5.06,NA,NA,65.9,122.37,156.13,151.79,157.58,188.68
"320","KA11201","Oiteke bi","_______","Kazakhstan",45.85,62.16,183,"AKA11201",NA,NA,NA,NA,NA,19.5,34.82,41.57,32.06,35.2,38.05
"321","KA11202","Zhalagash","_______","Kazakhstan",45.08,64.67,383,"AKA11202",NA,NA,NA,NA,NA,5.4,8.43,12.84,12.73,14.46,13.48
"322","KA11203","Zhanakorgan","_______","Kazakhstan",43.91,67.25,551,"AKA11203",NA,NA,NA,NA,NA,5.35,10.18,16.84,18.94,20.39,22.72
"323","KA11204","Zhosaly","_______","Kazakhstan",45.49,64.08,334,"AKA11204",NA,NA,NA,NA,NA,13.39,20.66,23.52,19.51,18.94,18.98
"324","KA11205","Tasboget","_______","Kazakhstan",44.77,65.55,442,"AKA11104",NA,NA,NA,NA,NA,3.24,8.81,12.38,15.37,17.43,18.88
"325","KA11206","Shieli","_______","Kazakhstan",44.17,66.75,479,"AKA11206",NA,NA,NA,NA,NA,13.96,22.17,25.72,28.48,28.3,29.63
"326","KA12101","Aktau","__УЖ_","Kazakhstan",43.65,51.2,-29,"AKA12101",NA,NA,NA,NA,NA,NA,59.02,110.58,159.25,150.09,166.96
"327","KA12102","Zhanaezen","__УЖ_","Kazakhstan",43.3,52.8,669,"AKA12102",NA,NA,NA,NA,NA,NA,18.07,34.39,48.34,54.76,91.33
"328","KA12201","Beineu","__УЖ_","Kazakhstan",45.32,55.2,-16,"AKA12201",NA,NA,NA,NA,NA,NA,4.24,8.38,11.91,17.02,32.45
"329","KA12202","Zhetibai","__УЖ_","Kazakhstan",43.59,52.08,488,"AKA12202",NA,NA,NA,NA,NA,NA,13.09,10.15,8.99,9.7,11.33
"330","KA12203","Mangystau","__УЖ_","Kazakhstan",43.7,51.33,-29,"AKA12101",NA,NA,NA,NA,NA,NA,4.35,7.61,10.7,13.04,14.82
"331","KA12204","Tenge","__УЖ_","Kazakhstan",43.31,52.86,708,"AKA12102",NA,NA,NA,NA,NA,NA,NA,3.61,4.57,12.39,16.69
"332","KA12205","Shetpe","__УЖ_","Kazakhstan",44.17,52.12,652,"AKA12205",NA,NA,NA,NA,NA,NA,4.97,8.16,10.58,10.38,12.22
"333","KA13101","Arys","__У___ ________","Kazakhstan",42.43,68.8,777,"AKA13101",NA,NA,NA,NA,NA,22.74,26.41,28,33.52,35.41,38
"334","KA13102","Zheticai","__У___ ________","Kazakhstan",40.78,68.33,889,"AKA13102",NA,NA,NA,NA,NA,7.34,15.98,27.13,27.81,29.91,36.49
"335","KA13103","Kentau","__У___ ________","Kazakhstan",43.52,68.51,1463,"AKA13103",NA,NA,NA,NA,NA,38.11,54.95,62.99,64.23,54.05,57.12
"336","KA13104","Lengir","__У___ ________","Kazakhstan",42.2,69.9,2709,"AKA13104",NA,NA,NA,NA,NA,22.99,22.22,22.05,21.72,19.28,24.64
"337","KA13105","Saryagash","__У___ ________","Kazakhstan",41.45,69.17,1374,"AUZ12112",NA,NA,NA,NA,NA,7.84,18.74,22.23,28.74,25.45,38.85
"338","KA13106","Tourkistan","__У___ ________","Kazakhstan",43.33,68.25,734,"AKA13106",NA,NA,11.25,NA,NA,38.15,53.97,66.74,78.29,86.36,142.9
"339","KA13107","Shardara","__У___ ________","Kazakhstan",41.32,67.97,777,"AKA13107",NA,NA,NA,NA,NA,NA,14.57,20.48,25.63,26.65,30.57
"340","KA13108","Shymkent","__У___ ________","Kazakhstan",42.3,69.6,1748,"AKA13108",NA,NA,11.19,NA,NA,153.24,247.06,321.54,392.98,413.33,603.5
"341","KA13201","Myrzakent","__У___ ________","Kazakhstan",40.67,68.53,885,"AKA13201",NA,NA,NA,NA,NA,6.27,8.61,9.56,10.33,10.92,13.27
"342","KA13202","Toulkibas","__У___ ________","Kazakhstan",42.49,70.29,2696,"AKA13202",NA,NA,NA,NA,NA,7.98,8.1,8.56,9.8,9.84,10.8
"343","KA13203","Asykata","__У___ ________","Kazakhstan",40.9,68.36,833,"AKA13203",NA,NA,NA,NA,NA,NA,4.32,5.82,9.42,10.79,11.1
"344","KA13204","Atakent (ilitch)","__У___ ________","Kazakhstan",40.85,68.51,826,"AKA13204",NA,NA,NA,NA,NA,22.83,11.51,11.75,15.28,14.33,16.4
"345","KA14101","Aksou","_________狗","Kazakhstan",52.03,76.92,403,"AKA14101",NA,NA,NA,NA,NA,4.16,28.13,41.57,47.07,40.29,41.68
"346","KA14102","Ekibastouz","_________狗","Kazakhstan",51.99,74.91,593,"AKA14102",NA,NA,NA,NA,NA,25.71,43.73,65.87,134.63,122.51,125.01
"347","KA14104","Pavlodar","_________狗","Kazakhstan",52.3,76.95,433,"AKA14104",NA,NA,7.74,NA,NA,90.1,187.07,272.9,330.75,292.04,317.29
"348","KA15103","Petropavlovsk","_______ ________","Kazakhstan",54.88,69.16,479,"AKA15103",3.56,7.32,19.69,NA,NA,131.45,172.91,206.56,241.36,196.73,201.45
"349","KA15105","Taiynsha","_______ ________","Kazakhstan",53.85,69.76,551,"AKA15105",NA,NA,NA,NA,NA,10.03,16.91,15.43,16.08,12.58,12.42
"350","KA15201","Novoishim","_______ ________","Kazakhstan",53.18,66.77,NA,"AKA15201",NA,NA,NA,NA,NA,NA,6.61,8.89,7.5,6.3,11.28
"351","KA16101","Ayagez","_勠Ж ________","Kazakhstan",47.97,80.44,2125,"AKA16101",NA,NA,NA,NA,NA,31.06,35.83,38.97,42.73,38.08,37.54
"352","KA16102","Zaisan","_勠Ж ________","Kazakhstan",47.47,84.87,2168,"AKA16102",NA,NA,4.4,NA,NA,8.79,12.29,14.37,16.97,15.64,14.39
"353","KA16103","Zyryanovsk","_勠Ж ________","Kazakhstan",49.74,84.27,1502,"AKA16103",NA,NA,NA,NA,NA,54.12,56.21,51.13,52.84,42.36,39.32
"354","KA16105","Kourtchatov","_勠Ж ________","Kazakhstan",50.75,78.53,NA,"AKA16105",NA,NA,NA,NA,NA,NA,NA,NA,NA,9.64,10.13
"355","KA16106","Oskemen","_勠Ж ________","Kazakhstan",49.98,82.61,931,"AKA16106",2.07,3.31,8.72,NA,NA,150.37,230.34,274.29,324.48,300.98,303.72
"356","KA16107","Ridder","_勠Ж ________","Kazakhstan",50.35,83.51,2395,"AKA16107",NA,NA,NA,NA,NA,66.81,72.07,68.14,68.71,54.02,50.5
"357","KA16108","Semei","_勠Ж ________","Kazakhstan",50.41,80.23,600,"AKA16108",3.58,6.85,26.25,NA,NA,156.11,235.74,282.57,334.4,269.23,299.26
"358","KA16111","Shemonaikha","_勠Ж ________","Kazakhstan",50.63,81.91,984,"AKA16111",NA,NA,NA,NA,NA,15.92,20.57,22.61,23.61,18.34,19.13
"359","KI01201","Batken","Batken","Kyrgyzistan",40.05,70.83,3471,"AKI01201",NA,NA,NA,NA,NA,NA,NA,7.16,10.24,11.26,13.7
"360","KI01202","Isfana","Batken","Kyrgyzistan",39.83,69.52,4297,"AKI01202",NA,NA,NA,NA,NA,NA,NA,9.63,13.19,15.43,18.47
"361","KI01203","Kyzylkyya","Batken","Kyrgyzistan",40.25,71.12,3356,"AUZ03105",NA,NA,NA,NA,NA,NA,NA,32.65,36.82,26.58,31.94
"362","KI01204","Soulouktou","Batken","Kyrgyzistan",39.93,69.57,4307,"AKI01204",NA,NA,NA,NA,NA,NA,NA,14.46,14.81,11.56,13.43
"363","KI01301","Khaidarkan","Batken","Kyrgyzistan",39.94,71.35,6289,"AKI01301",NA,NA,NA,NA,NA,NA,NA,11.51,11.12,8.92,10.35
"364","KI02101","Bishkek","Bishkek","Kyrgyzistan",42.87,74.6,2532,"AKI02101",NA,NA,6.62,NA,NA,NA,NA,532.93,610.63,800.35,833.05
"365","KI03201","Kant","Chouy","Kyrgyzistan",42.89,74.85,2391,"AKI02101",NA,NA,NA,NA,NA,NA,NA,21.33,24.01,18.83,21.29
"366","KI03202","Karabalta","Chouy","Kyrgyzistan",42.83,73.84,2506,"AKI03202",NA,NA,NA,NA,NA,NA,NA,47.27,53.89,44.61,37.95
"367","KI03204","Tokmok","Chouy","Kyrgyzistan",42.84,75.29,2624,"AKI03204",NA,NA,NA,NA,NA,NA,NA,58.66,72.93,55.08,53.75
"368","KI04201","Naryn","Naryn","Kyrgyzistan",41.43,76,6696,"AUZ05105",NA,NA,NA,NA,NA,NA,NA,30.41,42.21,32.16,34.98
"369","KI05101","Osh","Osh city","Kyrgyzistan",40.53,72.79,3221,"AKI05101",NA,NA,34.16,NA,NA,NA,NA,169,211.05,201.18,234.55
"370","KI06201","Karasouou","Osh","Kyrgyzistan",40.7,72.87,2454,"AKI06201",NA,NA,NA,NA,NA,NA,NA,19.48,18.91,19.04,21.2
"371","KI06202","Nookat (eski nookat)","Osh","Kyrgyzistan",40.27,72.6,4291,"AKI06202",NA,NA,NA,NA,NA,NA,NA,NA,NA,NA,14.63
"372","KI06203","Ozgon","Osh","Kyrgyzistan",40.77,73.3,3169,"AKI06203",NA,NA,NA,NA,NA,NA,NA,29.41,34.17,38.47,49.88
"373","KI07201","Talas","Talas","Kyrgyzistan",42.52,72.24,4140,"AKI07201",NA,NA,NA,NA,NA,NA,NA,22.96,30.52,29.99,33.09
"374","KI08201","Balyktchy","Issyk Koul","Kyrgyzistan",42.46,76.18,5318,"AKI08201",NA,NA,NA,NA,NA,NA,NA,33.32,42.44,39.33,42.77
"375","KI08202","Tcholponata","Issyk Koul","Kyrgyzistan",42.66,77.08,5413,"AKI08202",NA,NA,NA,NA,NA,NA,NA,8.17,9.67,9.05,10.62
"376","KI08203","Karakol","Issyk Koul","Kyrgyzistan",42.48,78.4,5882,"AKI08203",NA,NA,8.11,NA,NA,NA,NA,50.83,61.52,57.67,64.17
"377","KI09201","Karakol","Djalalabat","Kyrgyzistan",41.63,72.67,3047,"AKI09201",NA,NA,NA,NA,NA,NA,NA,17.1,22.23,16.92,18.99
"378","KI09202","Kerben","Djalalabat","Kyrgyzistan",41.5,71.75,4251,"AKI09202",NA,NA,NA,NA,NA,NA,NA,9.71,11.65,15.59,14.38
"379","KI09203","Kotchkorata","Djalalabat","Kyrgyzistan",41.02,72.48,1797,"AKI09203",NA,NA,NA,NA,NA,NA,NA,13.11,16.15,18.25,14.88
"380","KI09204","Kokzhangak","Djalalabat","Kyrgyzistan",41.03,73.2,4320,"AKI09204",NA,NA,NA,NA,NA,NA,NA,17.28,18.84,9.77,10.48
"381","KI09205","Mailouousouou","Djalalabat","Kyrgyzistan",41.28,72.45,3999,"AKI09205",NA,NA,NA,NA,NA,NA,NA,24.51,29.63,19.12,20.22
"382","KI09206","Tashkomour","Djalalabat","Kyrgyzistan",41.35,72.21,1876,"AKI09206",NA,NA,NA,NA,NA,NA,NA,15.88,23.31,21.7,19.67
"383","KI09207","Zhalalabat","Djalalabat","Kyrgyzistan",40.93,73,2473,"AKI09207",NA,NA,NA,NA,NA,NA,NA,55.37,70.86,81.68,90.26
"384","KI09303","Toktogoul","Djalalabat","Kyrgyzistan",41.9,72.95,3599,"AKI09303",NA,NA,NA,NA,NA,NA,NA,12.31,16.38,14.12,16.88
"385","LE01112","Bauska","Latvia","Latvia",56.41,24.19,78,"ALE01112",2.36,5.72,6.54,NA,NA,6.9,8.67,10.26,11.81,10.62,10.11
"386","LE01114","Csis","Latvia","Latvia",57.3,25.25,393,"ALE01114",1.98,1.34,6.36,7.77,8.5,13.84,17.7,20.96,22.01,18.56,18.24
"387","LE01117","Daugavpils","Latvia","Latvia",55.88,26.53,347,"ALE01117",7.08,11.11,69.68,56.7,51.7,65.46,100.43,115.73,126.68,113.41,103.92
"388","LE01118","Dobele","Latvia","Latvia",56.62,23.28,180,"ALE01118",NA,NA,NA,NA,NA,6.25,10.07,13.07,15.17,11.37,11.19
"389","LE01125","Jkabpils","Latvia","Latvia",56.48,25.85,255,"ALE01125",3.52,3.08,5.83,NA,NA,7.4,22.44,26.83,31.44,27.38,26.39
"390","LE01126","Jelgava","Latvia","Latvia",56.65,23.71,45,"ALE01126",22.95,17.4,35.13,33.01,32.1,36.36,55.3,67.6,74.7,65.93,64.9
"391","LE01127","Jrmala","Latvia","Latvia",56.96,23.75,13,"ALE01127",NA,NA,NA,NA,NA,37.95,53.83,60.95,66.03,55.33,55.86
"392","LE01131","Krslava","Latvia","Latvia",55.9,27.17,423,"ALE01131",NA,NA,NA,NA,NA,5.65,7.52,10.35,12.52,11.13,10.19
"393","LE01132","Kuldga","Latvia","Latvia",56.97,21.98,91,"ALE01132",4.28,4.82,9.72,7.05,6.1,10.48,12.32,13.98,14.23,13.27,12.81
"394","LE01134","Liepja","Latvia","Latvia",56.52,21.02,26,"ALE01134",10.99,8.33,64.49,56.47,53.2,71.46,92.88,107.66,114.46,87.51,84.07
"395","LE01142","Ogre","Latvia","Latvia",56.82,24.6,114,"ALE01142",NA,NA,NA,NA,NA,7.54,15.71,26.07,29.93,26.28,26.11
"396","LE01143","Olaine","Latvia","Latvia",56.79,23.94,9,"ALE01143",NA,NA,NA,NA,NA,9.37,9.19,13.37,14.61,12.84,12.67
"397","LE01149","Rzekne","Latvia","Latvia",56.5,27.32,498,"ALE01149",1.13,1.3,10.8,12.47,13.3,21.43,30.8,37.23,42.18,38.05,35.07
"398","LE01150","Rga","Latvia","Latvia",56.95,24.1,29,"ALE01150",71.23,70.46,282.23,326.02,347.8,580.42,731.83,835.48,915.11,747.16,706.41
"399","LE01154","Salaspils","Latvia","Latvia",56.86,24.35,68,"ALE01150",NA,NA,NA,NA,NA,NA,NA,13.66,15.64,17.89,18.15
"400","LE01155","Saldus","Latvia","Latvia",56.67,22.5,423,"ALE01155",NA,NA,NA,NA,NA,7.78,9.97,11.76,12.49,12.65,12.31
"401","LE01158","Sigulda","Latvia","Latvia",57.15,24.86,324,"ALE01158",NA,NA,NA,NA,NA,5.04,7.35,10.03,11.59,10.71,11.12
"402","LE01166","Talsi","Latvia","Latvia",57.25,22.6,318,"ALE01166",NA,NA,4.2,NA,NA,6.1,8.52,11.08,13.15,12.04,11.27
"403","LE01167","Tukums","Latvia","Latvia",56.97,23.16,154,"ALE01167",2.8,2.7,7.56,7.72,7.8,10.83,14.76,18.9,21.46,19.43,19.96
"404","LE01170","Valmiera","Latvia","Latvia",57.55,25.4,144,"ALE01170",0.88,1.13,5.05,7.12,8.3,11.59,20.33,25.54,29.46,27.35,27.23
"405","LE01173","Ventspils","Latvia","Latvia",57.39,21.56,36,"ALE01173",1.87,4.26,7.13,11.86,14.9,27.42,40.47,47.78,50.44,44,42.73
"406","LI01101","Alytus","Alytaus","Lithuania",54.4,24.05,305,"ALI01101",NA,NA,NA,6.68,8.51,12.35,28.07,55.26,73.07,71.08,66.84
"407","LI01103","Druskininkai","Alytaus","Lithuania",54.02,23.97,357,"ALI01103",NA,NA,NA,NA,NA,5.77,11.16,16.97,22.5,17.89,16.11
"408","LI01106","Varna","Alytaus","Lithuania",54.22,24.57,449,"ALI01106",NA,NA,NA,NA,NA,2.39,4.49,8.17,12.28,10.77,10.1
"409","LI02104","Garliava","Kauno","Lithuania",54.82,23.87,311,"ALI02108",NA,NA,NA,NA,NA,2.49,5.59,9.31,12.34,13.35,13.37
"410","LI02106","Jonava","Kauno","Lithuania",55.08,24.28,173,"ALI02106",NA,NA,NA,4.18,4.49,5.01,14.44,28.52,36.27,34.91,34.06
"411","LI02108","Kaunas","Kauno","Lithuania",54.9,23.9,157,"ALI02108",9.53,20,70.92,99.16,134.34,214.35,305.12,370.42,422.93,375.17,348.62
"412","LI02109","Kdainiai","Kauno","Lithuania",55.29,23.97,154,"ALI02109",NA,NA,NA,7.64,8.68,10.58,19.68,28.1,34.11,31.94,30.66
"413","LI02110","Prienai","Kauno","Lithuania",54.63,23.95,246,"ALI02110",NA,NA,2.48,3.4,4.09,5.42,7.84,9.73,12.05,11.3,10.87
"414","LI02111","Raseiniai","Kauno","Lithuania",55.37,23.12,403,"ALI02111",6.21,8.3,7.46,5.34,5.68,6.24,8.93,11.76,13.36,12.48,11.99
"415","LI03101","Gargzdai","Klaipdos","Lithuania",55.71,21.4,32,"ALI03101",NA,NA,NA,NA,NA,1.52,6.41,10.02,13.36,15.29,16.46
"416","LI03102","Klaipda","Klaipdos","Lithuania",55.72,21.12,19,"ALI03102",NA,NA,NA,NA,NA,89.92,140.01,175.83,204.25,191.9,182.75
"417","LI03103","Kretinga","Klaipdos","Lithuania",55.88,21.25,88,"ALI03103",NA,NA,NA,NA,NA,9.69,13.09,15.96,19.58,21.42,21.17
"418","LI03105","Palanga","Klaipdos","Lithuania",55.92,21.07,16,"ALI03105",NA,NA,NA,NA,NA,5.69,8.8,13.67,19.44,17.62,17.65
"419","LI03108","silut","Klaipdos","Lithuania",55.35,21.48,36,"ALI03108",NA,NA,NA,NA,NA,8.97,12.4,16.32,21.5,21.42,20.81
"420","LI04106","Marijampol","Marijampol","Lithuania",54.57,23.35,295,"ALI04106",NA,NA,6.74,10.08,13.1,19.62,28.76,38.45,50.62,48.43,46.26
"421","LI04108","Vilkaviskis","Marijampol","Lithuania",54.65,23.03,239,"ALI04108",NA,NA,5.79,7.05,6.19,5.07,8.57,12.06,14.04,13.24,12.77
"422","LI05101","Birzai","Panev_io","Lithuania",56.2,24.75,206,"ALI05101",NA,NA,NA,5.53,6.59,8.62,11.39,14.8,16.1,15.2,13.28
"423","LI05106","Panevzys","Panev_io","Lithuania",55.73,24.35,200,"ALI05106",5.98,5.61,12.97,20.45,26.92,41.1,73.33,101.52,126.42,118.86,111.96
"424","LI05109","Rokiskis","Panev_io","Lithuania",55.97,25.58,436,"ALI05109",NA,NA,NA,4.41,4.82,5.52,9.15,13.84,18.7,16.59,15.32
"425","LI06102","Joniskis","iauli_","Lithuania",56.24,23.62,183,"ALI06102",NA,NA,NA,NA,NA,5.89,7.52,9.78,11.8,11.28,10.69
"426","LI06104","Kursnai","iauli_","Lithuania",55.98,22.92,324,"ALI06104",NA,NA,NA,NA,NA,9.1,11.47,13.28,14.61,14.11,13.37
"427","LI06106","Naujoji Akmen","iauli_","Lithuania",56.32,22.9,308,"ALI06106",NA,NA,NA,NA,NA,5.41,10.18,14.45,13.66,12.19,11.1
"428","LI06108","Radviliskis","iauli_","Lithuania",55.82,23.53,390,"ALI06108",NA,NA,NA,NA,NA,12.61,16.84,19.51,21.31,20.22,19.19
"429","LI06110","siauliai","iauli_","Lithuania",55.93,23.32,351,"ALI06110",2.36,5.4,16.13,23.3,33.76,59.72,93.06,118.22,145.06,132.91,125.45
"430","LI07101","Jurbarkas","Taurag","Lithuania",55.08,22.77,72,"ALI07101",NA,NA,NA,4.41,4.41,4.41,6.58,10.79,14.36,13.75,12.97
"431","LI07107","Taurag","Taurag","Lithuania",55.25,22.29,127,"ALI07107",NA,NA,NA,5.84,7.77,12.04,19.46,25.84,30,28.97,27.5
"432","LI08101","Mazeikiai","Teli_","Lithuania",56.32,22.33,269,"ALI08101",NA,NA,NA,4.53,5.65,7.96,13.47,26.1,43.92,42.35,40.17
"433","LI08102","Plung","Teli_","Lithuania",55.91,21.84,387,"ALI08102",NA,NA,NA,4.5,5.82,8.67,13.56,18.87,22.79,23.39,23.06
"434","LI08105","Telsiai","Teli_","Lithuania",55.98,22.25,429,"ALI08105",4.15,5.12,6.21,5.12,7.49,13.46,20.22,26.92,33.55,31.23,29.76
"435","LI09101","Anyksciai","Utenos","Lithuania",55.53,25.1,246,"ALI09101",NA,NA,NA,NA,NA,5.44,8.24,10.58,12.85,11.91,11.62
"436","LI09108","Utena","Utenos","Lithuania",55.5,25.6,370,"ALI09108",NA,NA,NA,NA,NA,7.16,13.32,23.74,34.35,33.66,31.94
"437","LI09109","Visaginas","Utenos","Lithuania",55.6,26.42,538,"ALI09109",NA,NA,NA,NA,NA,NA,NA,5.98,31.58,29.27,28.05
"438","LI10103","Elektrnai","Vilniaus","Lithuania",54.77,24.63,321,"ALI10103",NA,NA,NA,NA,NA,NA,6.65,8.65,15.74,13.99,13.66
"439","LI10104","Grigisk","Vilniaus","Lithuania",54.68,25.08,305,"ALI10116",NA,NA,NA,NA,NA,2.56,4.99,8.13,11.53,11.48,11.36
"440","LI10105","Lentvaris","Vilniaus","Lithuania",54.65,25.05,518,"ALI10116",NA,NA,NA,NA,NA,4.22,8.06,10.15,12.68,11.79,11.51
"441","LI10114","Ukmerg","Vilniaus","Lithuania",55.25,24.75,209,"ALI10114",5.28,6.23,13.53,10.91,12.33,14.88,21.66,27,30.65,28.57,26.97
"442","LI10116","Vilnius","Vilniaus","Lithuania",54.68,25.32,410,"ALI10116",53.54,45.88,154.53,NA,NA,236.08,372.1,481,582.62,542.03,548.84
"443","MO01102","Balti","Moldavia","Moldavia",47.76,27.93,400,"AMO01102",6.14,6.65,18.48,26.12,30.5,67.11,101.45,125.33,158.52,126.93,122.9
"444","MO01103","Basarabeasca","Moldavia","Moldavia",46.33,28.97,134,"AMO01103",NA,NA,NA,NA,NA,12.55,13.24,13.83,14.52,11.59,11.2
"445","MO01107","Cahuk","Moldavia","Moldavia",45.91,28.19,88,"AMO01107",0.53,3.81,7.08,NA,10.6,16.22,26.25,33.13,42.9,36.4,35.8
"446","MO01109","Calarasi","Moldavia","Moldavia",47.25,28.31,505,"AMO01109",NA,NA,NA,NA,4.3,5.73,8.77,12.43,18.33,14.97,14.5
"447","MO01111","Causeni","Moldavia","Moldavia",46.64,29.41,351,"AMO01111",NA,NA,NA,NA,NA,NA,NA,NA,20.76,18.13,17.6
"448","MO01112","Ceadir-Lunga","Moldavia","Moldavia",46.05,28.83,255,"AMO01112",NA,NA,NA,NA,NA,13.19,20.47,21.71,23.16,19.86,19.4
"449","MO01113","Chisinau","Moldavia","Moldavia",47.01,28.86,88,"AMO01113",42.64,63.47,108.48,110.9,112,216.01,356.38,479.6,667.08,599.25,632.1
"450","MO01114","Cimislia","Moldavia","Moldavia",46.52,28.78,314,"AMO01114",NA,NA,NA,NA,NA,NA,NA,NA,16.51,13.29,12.6
"451","MO01115","Codru","Moldavia","Moldavia",46.98,28.82,321,"AMO01113",NA,NA,NA,NA,NA,NA,NA,NA,11.72,13.91,14.7
"452","MO01116","Comrat","Moldavia","Moldavia",46.3,28.66,157,"AMO01116",NA,NA,NA,NA,13,14.36,21.37,23.37,25.82,23.65,23.7
"453","MO01119","Cricova","Moldavia","Moldavia",47.14,28.86,246,"AMO01113",NA,NA,NA,NA,NA,NA,NA,NA,7.16,9.46,10.2
"454","MO01123","Drochia","Moldavia","Moldavia",48.03,27.82,711,"AMO01123",NA,NA,NA,NA,NA,6.64,10.18,14.44,21.3,17.17,17.5
"455","MO01124","Durlesti","Moldavia","Moldavia",47.02,28.76,570,"AMO01113",NA,NA,NA,NA,NA,NA,NA,NA,17.81,15.7,16.7
"456","MO01125","Edinet","Moldavia","Moldavia",48.17,27.3,718,"AMO01125",NA,NA,NA,NA,NA,8.9,11.88,15.06,19.59,16.1,18.2
"457","MO01126","Falesti","Moldavia","Moldavia",47.57,27.71,265,"AMO01126",NA,NA,NA,NA,10.5,7.96,9.81,11.62,14.04,14.81,14.3
"458","MO01127","Floresti","Moldavia","Moldavia",47.89,28.3,262,"AMO01127",NA,NA,NA,NA,NA,4.47,7.48,11.41,18.23,13.75,13.2
"459","MO01130","Glodeni","Moldavia","Moldavia",47.77,27.51,515,"AMO01130",NA,NA,NA,NA,NA,NA,NA,NA,13.18,10.79,10
"460","MO01131","Hincesti","Moldavia","Moldavia",46.83,28.59,410,"AMO01131",NA,NA,NA,NA,NA,8.69,11.63,14.76,19.24,15.76,15.2
"461","MO01132","Ialoveni","Moldavia","Moldavia",46.94,28.78,200,"AMO01113",NA,NA,NA,NA,NA,NA,NA,NA,12.85,14.73,15.4
"462","MO01134","Leova","Moldavia","Moldavia",46.48,28.26,291,"AMO01134",NA,NA,NA,NA,6.3,6.26,8,9.77,12.2,10.29,10
"463","MO01137","Nisporeni","Moldavia","Moldavia",47.08,28.18,308,"AMO01137",NA,NA,NA,NA,NA,NA,NA,NA,15.66,12.53,11.8
"464","MO01139","Orhei","Moldavia","Moldavia",47.38,28.82,410,"AMO01139",4.09,4.12,12.34,NA,14.7,14.39,25.8,28.5,31.84,26.39,25.7
"465","MO01141","Rezina","Moldavia","Moldavia",47.75,28.96,180,"AMO02106",NA,NA,NA,NA,7.3,2.42,4.66,7.97,14.48,10.68,12.7
"466","MO01142","Riscani","Moldavia","Moldavia",47.05,28.86,236,"AMO01142",NA,NA,NA,NA,NA,3.77,6.64,10.55,17.65,11.81,11.1
"467","MO01144","Singerei","Moldavia","Moldavia",46.91,28.98,255,"AMO01144",NA,NA,NA,NA,NA,NA,NA,NA,15.02,12.96,12.6
"468","MO01146","Soroca","Moldavia","Moldavia",48.16,28.3,160,"AMO01146",0.57,5.05,15.35,14.62,14.3,15.2,21.92,29.93,42.3,29.91,35.2
"469","MO01148","Straseni","Moldavia","Moldavia",46.91,28.86,236,"AMO01148",NA,NA,NA,NA,NA,NA,NA,NA,20.12,18.55,18.4
"470","MO01149","Taraclia","Moldavia","Moldavia",45.9,28.67,249,"AMO01149",NA,NA,NA,NA,NA,5.99,8.33,10.91,14.73,13.88,13.5
"471","MO01151","Ungheni","Moldavia","Moldavia",47.2,27.8,242,"AMO01151",NA,NA,NA,NA,NA,11.13,17.23,24.99,37.79,33.19,33
"472","MO01154","Volcanesti","Moldavia","Moldavia",47.15,28.19,944,"AMO01154",NA,NA,NA,NA,NA,NA,NA,NA,18.23,15.81,15.4
"473","MO02101","Bender","Transnitrie","Moldavia",46.83,29.49,NA,"AMO02108",10.01,14.88,31.8,31.04,30.7,43.11,72.32,95.47,129.97,100.88,93.33
"474","MO02103","Dnestrovsc","Transnitrie","Moldavia",46.62,29.91,55,"AMO02103",NA,NA,NA,NA,NA,NA,NA,NA,14.88,12.69,11.6
"475","MO02104","Dubasari","Transnitrie","Moldavia",47.26,29.16,124,"AMO02104",4.3,5.32,12.09,6.13,4.52,12.44,17.29,24.41,35.81,24.99,25.5
"476","MO02106","Ribnita","Transnitrie","Moldavia",47.77,29,200,"AMO02106",NA,NA,NA,5.82,11.45,18.65,32.27,43.75,61.35,54.62,49.39
"477","MO02107","Slobozia","Transnitrie","Moldavia",46.73,29.71,49,"AMO02107",NA,NA,NA,NA,NA,NA,NA,NA,19.04,16.43,14.7
"478","MO02108","Tiraspol","Transnitrie","Moldavia",46.84,29.64,26,"AMO02108",3.6,7.82,31.62,18.43,37.64,62.68,105.23,136.36,181.86,148.73,136.2
"479","R01205551","Blagoveschenka","Altai k.","Russia",52.83,79.87,354,"AR01205551",NA,NA,NA,NA,NA,8.6,15.7,18.88,13.6,12.42,11.63
"480","R01214501","zmeinogorsk","Altai k.","Russia",51.17,82.18,380,"AR01214501",NA,NA,7.38,9.89,11.28,13.8,11.4,10.6,12.2,11.63,10.96
"481","R01225501","gornjak","Altai k.","Russia",51,81.47,270,"AR01225501",NA,NA,NA,NA,NA,13.9,16.6,16,15.8,15.78,13.92
"482","R01232894001","Sibirskii","Altai k.","Russia",53.58,83.76,616,"AR01232894001",NA,NA,NA,NA,NA,NA,NA,NA,NA,12.05,11.31
"483","R01247551","Talmenka","Altai k.","Russia",53.82,83.57,465,"AR01247551",NA,NA,NA,NA,13.22,17.95,20.21,20.05,19.2,20.06,18.81
"484","R01401","barnaul","Altai k.","Russia",53.37,83.75,190,"AR01401",9.93,10.92,21.07,73.2,148.1,310.44,450.6,546.58,618.89,619.29,612.09
"485","R01401689","Youzhnyi","Altai k.","Russia",53.25,83.69,715,"AR01401689",NA,NA,NA,NA,NA,1.02,16.35,21.42,23.64,19.67,19.23
"486","R01403","alejsk","Altai k.","Russia",52.5,82.78,170,"AR01403",NA,NA,NA,NA,NA,29,32.5,31.3,30.3,28.55,29.51
"487","R01404","belokuriha","Altai k.","Russia",52,84.98,250,"AR01404",NA,NA,NA,NA,NA,4.9,7.1,9.2,14.4,14.53,14.66
"488","R01405","bijsk","Altai k.","Russia",52.52,85.17,180,"AR01405",2.59,3.14,17.21,45.5,80.2,150.91,190.49,216.53,239.18,231.17,210.06
"489","R01406","zarinsk","Altai k.","Russia",53.7,84.92,180,"AR01406",NA,NA,NA,NA,NA,9.6,8.3,18.3,50.2,50.37,48.46
"490","R01410","kamenjnaobi","Altai k.","Russia",53.8,81.33,120,"AR01410",NA,NA,NA,22.9,25.5,30.1,35.6,40,42.5,44.38,43.88
"491","R01413","novoaltajsk","Altai k.","Russia",53.4,83.93,140,"AR01401",NA,NA,NA,NA,9,34,49.5,50,53.6,60.02,70.44
"492","R01416","rubcovsk","Altai k.","Russia",51.52,81.2,215,"AR01416",NA,NA,NA,NA,38,111.4,145,157.1,171.8,163.06,147.01
"493","R01419","slavgorod","Altai k.","Russia",53,78.65,115,"AR01419",NA,NA,NA,NA,NA,38.4,32.9,32.1,34.9,34.34,32.39
"494","R01430","jarovoje","Altai k.","Russia",52.93,78.58,95,"AR01430",NA,NA,NA,NA,NA,NA,11.1,15.2,21.8,21.36,18.61
"495","R03201501","abinsk","Krasnodar","Russia",44.87,38.17,30,"AR03201501",NA,NA,NA,NA,NA,14.8,21.2,25.3,29.2,33.73,34.93
"496","R03205501","apsheronsk","Krasnodar","Russia",44.47,39.72,200,"AR03205501",NA,NA,NA,NA,NA,29.8,32.9,33.3,34.5,39.61,40.23
"497","R03205509","hadyzhensk","Krasnodar","Russia",44.43,39.53,120,"AR03205509",NA,NA,NA,NA,8.5,20.2,17.9,17.8,19,21.29,21.58
"498","R03213501","guljkevichi","Krasnodar","Russia",45.37,40.68,100,"AR03213501",NA,NA,NA,NA,NA,20.3,22.1,27.3,31.7,35.14,35.23
"499","R03221501","korenovsk","Krasnodar","Russia",45.47,39.45,40,"AR03221501",NA,NA,NA,NA,NA,18.2,26.3,35,35.8,40.84,41.18
"500","R03227501","kurganinsk","Krasnodar","Russia",44.88,40.6,165,"AR03227501",NA,NA,NA,NA,NA,24.3,34.8,37.6,40.8,46.62,47.97
"501","R03234501","novokubansk","Krasnodar","Russia",45.1,41.05,145,"AR03234501",NA,NA,NA,NA,NA,23.97,23.9,27.1,30.2,35.4,34.85
"502","R03241501","primorahtar","Krasnodar","Russia",46.05,38.18,2,"AR03241501",NA,NA,NA,NA,NA,22,26,28,30,32.68,32.25
"503","R03251501","temrjuk","Krasnodar","Russia",45.27,37.38,20,"AR03251501",NA,NA,14.73,15.9,23.2,22.2,23.2,31.9,33.2,36.12,38.01
"504","R03253501","timashevsk","Krasnodar","Russia",45.62,38.93,15,"AR03253501",NA,NA,NA,NA,NA,19,29.1,39.1,45.6,54.12,53.92
"505","R03257501","ustjlabinsk","Krasnodar","Russia",45.22,39.67,70,"AR03257501",NA,NA,5.1,11.72,17.02,30.2,35.6,39.2,41.8,43.82,43.27
"506","R03401","krasnodar","Krasnodar","Russia",45.03,38.98,25,"AR03401",NA,8.92,65.61,161.8,203.8,345.79,502.53,604.93,654.24,689.25,744.93
"507","R03403","anapa","Krasnodar","Russia",44.88,37.32,20,"AR03403",NA,NA,6.94,13.3,15.5,19.6,29.9,40.1,55,53.49,58.98
"508","R03405","armavir","Krasnodar","Russia",45,41.12,190,"AR03405",NA,NA,18.11,74.4,83.7,111,145.4,161.5,161,193.96,188.9
"509","R03406","belorechnsk","Krasnodar","Russia",44.77,39.88,120,"AR03406",NA,NA,NA,NA,NA,35.9,36,43,51.2,54.03,53.89
"510","R03408","gelendgik","Krasnodar","Russia",44.55,38.08,30,"AR03408",NA,NA,1.8,4.5,7.06,16.44,29.1,36.5,47.7,50.01,54.81
"511","R03409","gorkljuch","Krasnodar","Russia",44.63,39.13,70,"AR03409",NA,NA,NA,NA,NA,9.9,19.8,22.7,25.6,27.69,30.09
"512","R03411","ejsk","Krasnodar","Russia",46.7,38.28,10,"AR03411",NA,17.54,35.41,37.7,46.9,55.3,64.4,70.6,78.2,86.35,87.77
"513","R03414","kropotkin","Krasnodar","Russia",45.43,40.57,80,"AR03414",NA,NA,NA,31,41.6,54,68.3,70.2,75.9,79.19,80.74
"514","R03415","krymsk","Krasnodar","Russia",44.93,38,25,"AR03415",NA,NA,NA,NA,NA,32.8,41.4,48.2,50.9,56.62,57.37
"515","R03417","labinsk","Krasnodar","Russia",44.63,40.73,270,"AR03417",NA,NA,NA,NA,NA,41.9,50,54,58,61.45,62.82
"516","R03420","novrossijsk","Krasnodar","Russia",44.72,37.77,20,"AR03420",NA,12.04,16.9,66.2,95.2,93.5,132.7,159.1,185.9,232.08,241.79
"517","R03423","slavnakuban","Krasnodar","Russia",45.25,38.12,4,"AR03423",NA,NA,15.2,23.62,28.78,39,51.9,54.1,57.8,64.14,63.77
"518","R03426","sochi","Krasnodar","Russia",43.6,39.72,30,"AR03426",NA,NA,1.35,12.47,54.97,131.02,224,287.4,336.5,328.81,343.29
"519","R03429","tihoreck","Krasnodar","Russia",45.85,40.12,80,"AR03429",NA,NA,5.1,19.2,37,49.7,60.1,63.8,67.1,65.01,61.83
"520","R03432","tuapse","Krasnodar","Russia",44.1,39.08,20,"AR03432",NA,NA,1.39,12,29.8,36.7,51.4,59.8,63.1,64.24,63.23
"521","R04121","dudinka","Krasnoyarsk","Russia",69.4,86.18,20,"AR04121",NA,NA,NA,NA,13.9,16.3,19.7,24.8,32.3,25.13,22.21
"522","R04218501","ilanskij","Krasnoyarsk","Russia",56.23,96.07,280,"AR04218501",NA,NA,NA,NA,NA,26.9,22.9,20,18.4,17.07,16.11
"523","R04224501","kodinsk","Krasnoyarsk","Russia",58.68,99.18,160,"AR04224501",NA,NA,NA,NA,NA,NA,NA,3.6,14.1,14.75,14.84
"524","R04230502","artjomovsk","Krasnoyarsk","Russia",54.35,93.43,470,"AR04230502",NA,NA,NA,NA,NA,13.1,10.5,10,4.5,2.93,2.18
"525","R04247501","zaozernyj","Krasnoyarsk","Russia",55.97,94.7,210,"AR04247501",NA,NA,NA,NA,NA,34.7,27.2,15.8,15.7,12.48,10.68
"526","R04254501","igarka","Krasnoyarsk","Russia",67.47,86.57,20,"AR04254501",NA,NA,NA,NA,23.6,14.3,15.6,16.3,18.8,8.63,6.18
"527","R04256501","uzhur","Krasnoyarsk","Russia",55.32,89.82,380,"AR04256501",NA,NA,NA,NA,NA,23.5,24.5,28.6,28.4,17.25,16.08
"528","R04257501","ujar","Krasnoyarsk","Russia",55.82,94.32,340,"AR04257501",NA,NA,NA,NA,NA,21.6,20.6,18,17,13.81,12.67
"529","R04401","krasnojarsk","Krasnoyarsk","Russia",56,92.93,150,"AR04401",6.89,6.41,26.7,69.3,186.1,412.4,648.1,796.3,912.6,909.34,973.89
"530","R04403","achinsk","Krasnoyarsk","Russia",56.27,90.5,220,"AR04403",2.16,2.29,6.7,19.93,32.5,50.3,97,116.9,121.6,118.74,109.16
"531","R04406","bogotol","Krasnoyarsk","Russia",56.2,89.52,290,"AR04406",NA,NA,NA,NA,NA,30.9,29.3,28.2,27.8,24.37,21.03
"532","R04407","borodino","Krasnoyarsk","Russia",55.9,94.9,330,"AR04407",NA,NA,NA,NA,NA,9.9,10.8,11.3,18.4,19.18,17.42
"533","R04409","divnogorsk","Krasnoyarsk","Russia",55.95,92.38,260,"AR04401",NA,NA,NA,NA,NA,7,25.9,28.9,30,30.14,28.27
"534","R04412","enisejsk","Krasnoyarsk","Russia",58.45,92.17,75,"AR04412",NA,5.12,11.51,6,9.04,17,19.9,20.8,22.9,20.39,18.77
"535","R04420","kansk","Krasnoyarsk","Russia",56.2,95.7,200,"AR04420",1.5,1.99,7.54,19,42.2,82.7,94.7,100.6,109.6,103,94.23
"536","R04422","lesosibirsk","Krasnoyarsk","Russia",58.23,92.48,80,"AR04422",NA,NA,NA,NA,NA,16.26,25.03,38.6,68.3,65.37,61.15
"537","R04423","minusinsk","Krasnoyarsk","Russia",53.7,91.68,250,"AR95401",1.37,2.18,10.23,20.4,26.15,38.3,40.8,56.2,72.9,72.56,71.17
"538","R04426","nazarovo","Krasnoyarsk","Russia",56,90.38,250,"AR04426",NA,NA,NA,NA,NA,29.7,44.2,53.7,64.4,56.54,52.83
"539","R04429","noriljsk","Krasnoyarsk","Russia",69.33,88.22,90,"AR04429",NA,NA,NA,NA,14,114.57,149.53,231.82,265.43,220.6,175.3
"540","R04433","sosnoborsk","Krasnoyarsk","Russia",56.13,93.37,160,"AR04401",NA,NA,NA,NA,NA,NA,NA,12.7,29.7,30.59,33.09
"541","R04440","sharypovo","Krasnoyarsk","Russia",55.53,89.2,310,"AR04440",NA,NA,NA,NA,NA,3.3,4.5,6.2,39.8,41.53,38.57
"542","R04535","zhelezngrsk","Krasnoyarsk","Russia",56.25,93.53,150,"AR04535",NA,NA,NA,NA,NA,NA,NA,86.2,89.61,93.88,85.56
"543","R04537","zelengorsk","Krasnoyarsk","Russia",56.1,94.58,170,"AR04537",NA,NA,NA,NA,NA,9.2,17.74,48.7,57.19,69.36,66.02
"544","R05401","vladivostok","Primorie","Russia",43.12,131.9,40,"AR05401",NA,NA,28.93,103.3,206.4,290.6,440.9,549.8,633.8,594.7,592.07
"545","R05403","arsenjev","Primorie","Russia",44.17,133.27,170,"AR05403",NA,NA,NA,NA,11,26.3,47.3,60.1,70,62.9,56.74
"546","R05405","artjom","Primorie","Russia",43.35,132.18,40,"AR05401",NA,NA,NA,NA,34.9,74.57,88.12,99.37,104.14,101.83,102.64
"547","R05407","dalnegorsk","Primorie","Russia",44.57,135.62,170,"AR05407",NA,NA,NA,NA,NA,16.9,33.5,43.4,49.8,40.07,37.5
"548","R05408","dalnerechsk","Primorie","Russia",45.93,133.73,160,"AR05408",NA,NA,NA,NA,13.9,25.4,28.2,31.3,33.6,30.09,27.6
"549","R05411","lesozavodsk","Primorie","Russia",45.47,133.4,70,"AR05411",NA,NA,NA,NA,24.1,32.1,35,38.8,44.1,42.19,36.98
"550","R05414","nahodka","Primorie","Russia",42.82,132.87,10,"AR05414",NA,NA,NA,NA,NA,69.48,111.58,150.7,185.23,177.13,159.7
"551","R05417","partizansk","Primorie","Russia",43.13,133.13,140,"AR05417",NA,NA,NA,6.5,36.9,48.5,48.3,46.3,49.5,43.67,38.65
"552","R05420","spasskdalni","Primorie","Russia",44.6,132.82,90,"AR05420",NA,NA,NA,NA,23.3,39.6,45.1,53.2,60.1,51.69,44.17
"553","R05423","ussurijsk","Primorie","Russia",43.8,131.95,20,"AR05423",NA,NA,10.9,32.1,71.9,104.3,128.2,146.8,158,157.76,157.95
"554","R05506","bolkamen","Primorie","Russia",43.12,132.35,50,"AR05401",NA,NA,NA,NA,NA,7.8,27.8,35.2,65.6,38.39,39.26
"555","R05547","fokinop","Primorie","Russia",42.97,132.4,40,"AR05547",NA,NA,NA,NA,NA,NA,13.6,15.2,19.34,26.46,23.68
"556","R07210501","blagodarnyj","Stavropol","Russia",45.1,43.43,160,"AR07210501",NA,NA,12.2,14.78,16.1,14.9,20.2,22.7,27.8,34.5,32.74
"557","R07220501","izobiljnyj","Stavropol","Russia",45.37,41.72,200,"AR07220501",NA,NA,NA,NA,6.7,11.1,23.2,29.2,32.9,38.93,40.55
"558","R07222501","ipatovo","Stavropol","Russia",45.72,42.9,100,"AR07222501",NA,NA,NA,NA,12.4,13.7,18.5,22,26.4,28.59,26.06
"559","R07225501","novpavlovsk","Stavropol","Russia",43.97,43.63,330,"AR07225501",NA,NA,NA,NA,6.4,7.9,10.61,13.5,18.6,23.24,26.56
"560","R07241501","neftekumsk","Stavropol","Russia",44.75,44.98,40,"AR07241501",NA,NA,NA,NA,NA,NA,14.6,20.2,22.1,27.4,27.7
"561","R07243501","novoaleksan","Stavropol","Russia",45.5,41.23,110,"AR07243501",NA,NA,NA,NA,NA,16.5,20.7,22.7,25.8,27.32,26.76
"562","R07246501","svetlograd","Stavropol","Russia",45.33,42.85,130,"AR07246501",NA,NA,NA,NA,18,24.3,30.9,33.6,37.2,39.37,38.52
"563","R07250501","zelenokumsk","Stavropol","Russia",44.42,43.88,145,"AR07250501",NA,NA,NA,NA,10.7,11.5,29.7,32.1,35.1,40.34,35.79
"564","R07258501","mihajlovsk","Stavropol","Russia",45.13,42.03,440,"AR07258501",NA,NA,NA,NA,8.6,12.3,21.5,32.3,43,58.15,71.02
"565","R07401","stavropolj","Stavropol","Russia",45.05,41.98,550,"AR07401",6.96,17.31,41.59,57.4,85.3,141,198.3,258.2,318.3,354.87,398.27
"566","R07402","budjonovsk","Stavropol","Russia",44.78,44.15,115,"AR07402",NA,NA,6.58,15.8,23.15,27.9,35.8,45.6,55.3,65.69,64.63
"567","R07407","georgijevsk","Stavropol","Russia",44.15,43.47,300,"AR07407",NA,5.6,12.12,22.2,31.6,35.1,44.2,53.6,62.9,70.58,72.13
"568","R07410","essentuki","Stavropol","Russia",44.03,42.85,610,"AR07427",NA,NA,4.4,23.2,16.4,48.1,65,77.7,85.1,81.76,100.97
"569","R07412","zhelezvodsk","Stavropol","Russia",44.13,43.03,600,"AR07427",NA,NA,0.3,2,7.4,11.9,18.8,23.5,28.5,25.14,24.5
"570","R07415","kislovodsk","Stavropol","Russia",43.92,42.72,810,"AR07415",NA,NA,1.8,31.4,51.3,78,89.6,100.9,114.4,129.79,128.5
"571","R07418","lermontov","Stavropol","Russia",44.1,42.97,650,"AR07427",NA,NA,NA,NA,NA,10.9,15.1,18.8,20.8,22.96,22.54
"572","R07421","minvody","Stavropol","Russia",44.22,43.13,300,"AR07427",NA,NA,NA,18,31.3,40.1,55.1,67.4,71,75.64,76.72
"573","R07424","nevinnomysk","Stavropol","Russia",44.63,41.93,320,"AR07424",NA,NA,NA,NA,23.6,39.8,85.1,103.7,121.4,132.14,118.35
"574","R07427","pjatigorsk","Stavropol","Russia",44.03,43.05,500,"AR07427",1.59,2.28,18.44,53.5,63.2,69.6,93.1,109.9,129.5,140.56,142.4
"575","R08217501","vjazemskij","Khabarovsk","Russia",47.53,134.75,70,"AR08217501",NA,NA,NA,NA,17.1,18,18.4,18.9,18.4,15.76,14.56
"576","R08401","habarovsk","Khabarovsk","Russia",48.48,135.07,80,"AR08401",NA,NA,14.97,46.1,199.2,322.7,436,527.8,600.6,583.07,577.67
"577","R08403","amursk","Khabarovsk","Russia",50.22,136.9,50,"AR08403",NA,NA,NA,NA,NA,3.5,24,40.8,58.4,47.76,42.98
"578","R08406","bikin","Khabarovsk","Russia",46.82,134.25,70,"AR08406",NA,NA,NA,NA,15,19,17.5,17.7,19.1,19.64,17.16
"579","R08409","komsomlamur","Khabarovsk","Russia",50.55,137,30,"AR08409",NA,NA,NA,NA,70.8,177.3,218.1,263.9,315.3,281.04,263.91
"580","R08414","nikolskamur","Khabarovsk","Russia",53.15,140.73,30,"AR08414",NA,NA,5.68,7.5,17.3,30.9,30.1,33.5,36.3,28.49,22.77
"581","R08418","sovetgavanj","Khabarovsk","Russia",48.97,140.28,50,"AR08418",NA,NA,NA,NA,NA,37.4,28.5,29,34.9,30.48,27.71
"582","R10221501","zavitinsk","Amour","Russia",50.12,129.43,230,"AR10221501",NA,NA,NA,NA,NA,16,19,17.5,21.8,14.25,11.48
"583","R102315519","Magdatchi","Amour","Russia",53.45,125.8,1171,"AR102315519",NA,NA,NA,NA,NA,12.98,15.06,14.44,15.58,12.21,10.9
"584","R102475515","Seryshevo","Amour","Russia",51.09,128.38,567,"AR102475515",NA,NA,NA,NA,NA,7.56,10.28,11.52,13.46,12.19,10.69
"585","R10249501","skovorodino","Amour","Russia",53.98,123.93,400,"AR10249501",NA,NA,NA,NA,NA,15.1,11.4,13,13.8,10.57,9.56
"586","R10401","blagovschsk","Amour","Russia",50.28,127.53,130,"AR10401",NA,NA,32.83,57.2,58.8,94.7,127.8,172,205.6,219.22,214.4
"587","R10410","belogorsk","Amour","Russia",50.92,128.48,170,"AR10410",NA,NA,NA,NA,34,48.8,56.9,63.4,73.4,67.42,68.22
"588","R10412","zeja","Amour","Russia",53.73,127.25,220,"AR10412",NA,NA,NA,NA,8.9,7.1,16.7,29,32,27.8,25.04
"589","R10420","rajchihinsk","Amour","Russia",49.8,129.4,200,"AR10420",NA,NA,NA,NA,NA,27.5,25.2,28.1,27.9,24.5,20.5
"590","R10430","svobodnyj","Amour","Russia",51.38,128.13,190,"AR10430",NA,NA,NA,10,44,56.9,62.9,74.5,80,63.89,58.59
"591","R10432","tynda","Amour","Russia",55.15,124.72,520,"AR10432",NA,NA,NA,NA,NA,3.1,3.4,41.7,62,40.09,35.57
"592","R10440","shimanovsk","Amour","Russia",52,127.67,270,"AR10440",NA,NA,NA,NA,13.5,17.9,16.9,25.6,26.3,22.27,19.82
"593","R10465","Progress","Amour","Russia",49.74,129.68,452,"AR10465",NA,NA,NA,NA,NA,9.5,13.48,13.07,14.35,13.08,11.15
"594","R11111","narjanmar","Arkhanguelsk","Russia",67.63,53,10,"AR11111",NA,NA,NA,14,13.7,13.2,16.9,23.4,20.2,18.61,21.3
"595","R11205501","veljsk","Arkhangelsk","Russia",61.07,42.1,90,"AR11205501",NA,0.77,1.99,3.5,6.7,16.9,21.9,24.6,26,26.24,23.89
"596","R11218501","kargopol","Arkhangelsk","Russia",61.5,38.93,120,"AR11218501",NA,1.96,3.06,3.4,6.3,8.7,11.4,10.7,12.5,11.19,10.15
"597","R11222551","Konosha","Arkhangelsk","Russia",60.97,40.26,682,"AR11222551",NA,NA,NA,NA,NA,13.77,13.31,15.33,17.14,12.87,12.43
"598","R11227504","soljvycheg","Arkhangelsk","Russia",61.33,46.92,70,"AR11227504",NA,1.27,1.79,2.1,3,3.5,3.9,4.1,4,2.84,2.46
"599","R11242501","mezenj","Arkhangelsk","Russia",65.85,44.23,20,"AR11242501",NA,1.54,1.85,2.9,3.9,4.1,4.2,4.8,5,3.86,3.6
"600","R11244501","njandoma","Arkhangelsk","Russia",61.67,40.2,220,"AR11244501",NA,NA,NA,NA,14.9,21.7,23.4,22,24.8,22.62,22.35
"601","R112505513","Plesetsk","Arkhangelsk","Russia",62.71,40.29,426,"AR11525",NA,NA,NA,1.51,3.56,13.32,13.33,13.27,14.03,11.3,11.03
"602","R11258501","shenkursk","Arkhangelsk","Russia",62.1,42.9,60,"AR11258501",NA,0.67,1.49,2.6,4.9,5.4,6.4,7.6,7.4,6.15,5.7
"603","R11401","arhangeljsk","Arkhangelsk","Russia",64.55,40.53,5,"AR11401",10.54,15.16,20.88,71.1,284.6,256.3,342.6,385,415.9,356.05,348.72
"604","R11408","korjazhma","Arkhangelsk","Russia",61.3,47.17,90,"AR11408",NA,NA,NA,NA,NA,11.2,33.2,42.8,41.8,42.81,39.63
"605","R11410","kotlas","Arkhangelsk","Russia",61.25,46.65,80,"AR11410",NA,NA,NA,4.3,17.3,52.6,55.7,61.5,68,60.65,60.56
"606","R11410557","Vytchegodskii","Arkhangelsk","Russia",61.24,46.91,255,"AR11410",NA,NA,NA,NA,NA,9.96,10.93,12.45,14.49,13.44,12.86
"607","R11415","novodvinsk","Arkhangelsk","Russia",64.42,40.82,20,"AR11401",NA,NA,NA,NA,NA,16.3,34.2,47.8,50.2,43.38,40.61
"608","R11420","onega","Arkhangelsk","Russia",63.92,38.08,20,"AR11420",NA,1.52,2.54,5.3,15.8,21.3,25,25,26.1,23.43,21.36
"609","R11430","severdvinsk","Arkhangelsk","Russia",64.57,39.82,7,"AR11430",NA,NA,NA,NA,21.3,78.7,144.7,197.2,248.7,201.55,192.27
"610","R11525","mirnyja","Arkhangelsk","Russia",62.77,40.33,115,"AR11525",NA,NA,NA,NA,NA,NA,NA,NA,NA,30.5,30.26
"611","R12225501","kamyzjak","Astrakhan","Russia",46.12,48.08,0,"AR12225501",NA,NA,2.7,3.21,3.46,3.9,6.7,14.1,15.1,16.05,16.29
"612","R12240501","narimanov","Astrakhan","Russia",46.68,47.85,0,"AR12240501",NA,NA,NA,NA,NA,NA,3.3,3.4,11.1,11.2,11.39
"613","R12245501","harabali","Astrakhan","Russia",47.4,47.25,0,"AR12245501",NA,NA,3.5,5.64,6.98,9.7,14.3,17,18.6,18.3,18.21
"614","R12401","astrahan","Astrakhan","Russia",46.35,48.03,0,"AR12401",45.7,34.58,112.88,175.4,253.6,295.8,410.5,461,509.2,504.5,520.66
"615","R12402","ahtubinsk","Astrakhan","Russia",48.28,46.17,1,"AR12402",NA,NA,7,12.04,15.35,22.3,43.5,47.4,50.3,45.54,41.9
"616","R12519","znamensk","Astrakhan","Russia",48.58,45.73,3,"AR12519",NA,NA,NA,NA,NA,NA,NA,NA,NA,32.07,29.36
"617","R14215551","Borisovka","Belgorod","Russia",50.61,36.01,479,"AR14215551",NA,NA,NA,20.66,15.76,10.39,11.84,12.41,13,14.07,13.9
"618","R14232501","grajvoron","Belgorod","Russia",50.48,35.67,130,"AR14232501",NA,3.55,6.34,8.9,4.6,5.1,5.9,5.9,6,6.2,6.23
"619","R14240501","korocha","Belgorod","Russia",50.82,37.2,150,"AR14240501",NA,6,10.24,14.1,5.4,3.9,5.4,5.6,5.8,6.05,5.88
"620","R14242501","biruch","Belgorod","Russia",50.65,38.4,120,"AR14242501",NA,4.18,13.08,5.8,4.03,2.3,7.6,8,8.5,8.09,7.84
"621","R14244501","novyjoskol","Belgorod","Russia",50.77,37.87,110,"AR14244501",NA,0.97,3,8.9,5.4,12.9,15.9,17.9,20.1,20.89,19.53
"622","R14248551","Rakitnoe","Belgorod","Russia",50.83,35.83,705,"AR14248551",NA,NA,NA,NA,NA,6.92,7.16,10.22,11.21,10.46,10.29
"623","R14258501","stroitel","Belgorod","Russia",50.78,36.48,220,"AR14258501",NA,NA,NA,NA,NA,NA,3.9,9.9,14.3,18.4,23.93
"624","R14401","belgorod","Belgorod","Russia",50.6,36.6,130,"AR14401",11.1,12.8,26.56,31,34.4,72.3,151.3,239.8,300.4,337.03,356.43
"625","R14410","aleksejevka","Belgorod","Russia",50.63,38.68,120,"AR14410",NA,NA,13.6,15.8,16.9,20.1,25.6,31.6,36.6,39.31,39.03
"626","R14420","valujki","Belgorod","Russia",50.18,38.12,90,"AR14420",NA,2.93,6.7,10.2,18.7,18.1,29.1,32.1,34.9,35.79,35.32
"627","R14430","gubkin","Belgorod","Russia",51.28,37.55,180,"AR14430",NA,NA,NA,NA,0.4,21.3,54.1,65.1,73.8,86.08,88.56
"628","R14440","staryjoskol","Belgorod","Russia",51.3,37.83,150,"AR14440",6.75,7.54,15.62,20,10.9,27.5,51.5,114.9,173.9,215.9,221.16
"629","R14450","shebekino","Belgorod","Russia",50.42,36.9,110,"AR14450",NA,NA,NA,1.3,9.4,13.9,26,39.5,44.6,45.12,44.28
"630","R15216501","djatjkovo","Bryansk","Russia",53.6,34.33,200,"AR15216501",NA,NA,3.8,10.82,17.3,19.4,26.8,31.7,34.4,33.6,29.44
"631","R15216504","fokino","Bryansk","Russia",53.45,34.42,190,"AR15401",NA,NA,NA,NA,6.4,11,13.1,14,15.2,15.5,13.87
"632","R15222501","zhukovka","Bryansk","Russia",53.53,33.73,170,"AR15222501",NA,NA,NA,NA,NA,11.1,16.2,17.6,19.7,19.73,18.27
"633","R15223501","zlynka","Bryansk","Russia",52.43,31.73,150,"AR15223501",NA,NA,5.3,6.4,8.8,6,6.1,5.9,5.6,5.37,5.51
"634","R15224501","karachev","Bryansk","Russia",53.12,34.98,200,"AR15224501",NA,9.9,15.49,11.9,17.9,11.2,16,19.7,22.4,20.18,19.72
"635","R15236501","mglin","Bryansk","Russia",53.05,32.85,180,"AR15236501",NA,7.11,7.64,6.5,7.3,6.1,6.1,6.5,7.7,8.26,7.92
"636","R15244501","pochep","Bryansk","Russia",52.93,33.45,150,"AR15244501",NA,NA,8.3,13.5,15.6,15.7,16,15.9,16.9,17.06,17.16
"637","R15248501","sevsk","Bryansk","Russia",52.15,34.48,170,"AR15248501",NA,5.77,9.25,8.6,6.9,6.2,7.2,7.5,7.8,7.66,7.28
"638","R15250501","starodub","Bryansk","Russia",52.58,32.77,180,"AR15250501",NA,7.73,12.38,10.9,12.6,11.7,15.1,17.2,18.9,18.64,19.01
"639","R15254501","surazh","Bryansk","Russia",53.02,32.4,160,"AR15254501",NA,3.12,4.01,5.8,9,8.5,10.3,10.6,12.6,12.05,11.64
"640","R15256501","trubchevsk","Bryansk","Russia",52.58,33.77,170,"AR15256501",NA,4.02,7.42,11.1,8.3,9.6,12.1,14.4,16.3,16.34,15.01
"641","R15258501","unecha","Bryansk","Russia",52.85,32.68,180,"AR15258501",NA,NA,NA,NA,14,16.5,21.7,26.4,28.6,29.04,26.2
"642","R15401","brjansk","Bryansk","Russia",53.25,34.37,190,"AR15401",8.52,11.25,24.78,25.1,87.5,207.3,317.5,394.2,452.2,431.53,415.64
"643","R15415","klincy","Bryansk","Russia",52.75,32.23,160,"AR15415",NA,NA,11.9,21.5,40.5,42,58.1,67.1,71.2,67.33,62.51
"644","R15420","novozybkov","Bryansk","Russia",52.53,31.93,160,"AR15420",5.69,7.17,15.36,19.9,24.5,25.9,34.4,41.2,44.9,43.04,40.55
"645","R15425","seljco","Bryansk","Russia",53.37,34.1,160,"AR15425",NA,NA,NA,NA,8.5,12.1,17.6,20.2,20.8,19.14,17.93
"646","R17205505","karabanovo","Vladimir","Russia",56.32,38.7,170,"AR17410",NA,NA,7.6,10.7,16.1,18.1,18.5,18.7,17.5,16.02,14.87
"647","R17205508","strunino","Vladimir","Russia",56.38,38.58,170,"AR17410",NA,NA,6.3,8.8,15.1,19,20.6,19.7,18.7,16.06,14.37
"648","R17215501","gorohovec","Vladimir","Russia",56.2,42.7,80,"AR17215501",NA,2.26,2.3,3.9,5.8,9.9,14,15,15.8,14.52,14.02
"649","R17220515","kurlovo","Vladimir","Russia",55.45,40.62,130,"AR17220515",NA,NA,NA,2.2,3.73,8.4,8.7,8.4,7.9,7.43,6.79
"650","R17225501","kameshkovo","Vladimir","Russia",56.35,41,100,"AR17225501",NA,NA,NA,4,6.13,11.8,12.9,14.1,15.1,14.16,13.11
"651","R17230501","kirzhach","Vladimir","Russia",56.15,38.87,135,"AR17230501",NA,2.14,4.85,5,11.6,22.61,27.94,34.4,36.86,32.94,30.04
"652","R17242501","melenki","Vladimir","Russia",55.33,41.63,130,"AR17242501",NA,4.57,8.91,10.8,15.6,17.5,18.5,18.1,18.3,16.34,15.21
"653","R17246501","petushki","Vladimir","Russia",55.93,39.47,130,"AR17246501",NA,NA,NA,1.2,2.92,11.5,12.9,17.6,20.1,16.48,15.17
"654","R17246510","kosterjovo","Vladimir","Russia",55.93,39.62,115,"AR17246510",NA,NA,NA,0.6,1.62,7.5,9.3,11.4,11.8,9.61,9.14
"655","R17246520","pokrov","Vladimir","Russia",55.92,39.18,125,"AR17246520",NA,2.72,2.79,3.2,4.31,6.8,10,14.6,16,15.92,17.76
"656","R17252501","sudogda","Vladimir","Russia",55.95,40.87,100,"AR17252501",NA,2.5,3.18,4.5,6.2,7.5,10.5,12.4,14.2,13.33,11.85
"657","R17256501","jurevpolski","Vladimir","Russia",56.5,39.68,140,"AR17256501",NA,3.37,5.76,8.1,15.2,16.8,22.1,21.1,22.2,19.91,19.59
"658","R17401","vladimir","Vladimir","Russia",56.13,40.42,150,"AR17401",12.04,12.67,28.48,36.9,66.8,153.9,237.94,304.85,366.34,327.57,345.6
"659","R17410","aleksandrov","Vladimir","Russia",56.4,38.72,190,"AR17410",2.15,3.41,6.81,12,27.7,36.7,49.9,60.4,68.2,64.82,61.54
"660","R17415","vjazniki","Vladimir","Russia",56.23,42.17,130,"AR17415",4.11,5.31,8.86,17,33.5,39.4,42.7,45.9,45.4,40.4,41.25
"661","R17420","gushrustaln","Vladimir","Russia",55.62,40.65,130,"AR17420",NA,NA,12,17.9,40.2,54.2,64.5,71.6,76.4,67.12,60.77
"662","R17425","kovrov","Vladimir","Russia",56.35,41.32,125,"AR17425",1.51,2.22,14.57,25.9,67.1,98.6,123.3,142.9,159.9,155.5,145.49
"663","R17430","koljchugino","Vladimir","Russia",56.3,39.38,175,"AR17430",NA,NA,1.3,11.6,29.6,37.9,41.6,43.7,48.01,47.06,45.8
"664","R17435","murom","Vladimir","Russia",55.57,42.03,115,"AR17435",9.62,10.82,13.27,22.6,40.1,76.29,107.31,128.48,142.79,126.9,116.08
"665","R17440","sobinka","Vladimir","Russia",55.98,40.02,105,"AR17440",NA,NA,5.5,12.9,18.2,20.5,22.9,23.6,23.7,21.05,19.48
"666","R17440510","lakinsk","Vladimir","Russia",56.02,39.95,120,"AR17440510",NA,NA,NA,NA,7.2,9.8,15.1,17.5,18.9,17.09,15.71
"667","R17445","suzdalj","Vladimir","Russia",56.43,40.43,115,"AR17445",NA,6.06,6.41,6.6,6.6,9,10.2,11.5,12.1,11.36,10.54
"668","R17537","raduzhnyjv","Vladimir","Russia",56,40.33,160,"AR46438",NA,NA,NA,NA,NA,NA,NA,NA,NA,17.51,18.21
"669","R18208501","dubovka","Volgograd","Russia",49.05,44.83,50,"AR18208501",NA,NA,16.5,11.3,11.46,11.7,13.4,15,13.7,15.08,14.35
"670","R18212501","zhirnovsk","Volgograd","Russia",50.98,44.77,120,"AR18212501",NA,NA,NA,NA,NA,9.9,14.7,15.7,16.8,17.75,16.89
"671","R18216501","kalachnadon","Volgograd","Russia",48.68,43.53,40,"AR18216501",NA,NA,NA,NA,NA,16.7,20.8,22.8,23,26.88,26.89
"672","R18218503","petrovval","Volgograd","Russia",50.13,45.22,105,"AR18415",NA,NA,NA,NA,NA,8.7,12.1,13.1,13.8,14.72,13.26
"673","R18224501","kotelnikovo","Volgograd","Russia",47.63,43.13,50,"AR18224501",NA,NA,NA,NA,NA,17.6,19.1,20.2,20.3,19.66,20.44
"674","R18226501","kotovo","Volgograd","Russia",50.32,44.8,150,"AR18226501",NA,NA,NA,NA,NA,7.2,20.6,23.1,25.4,26.76,24.1
"675","R18230501","leninsk","Volgograd","Russia",48.7,45.2,0,"AR18230501",NA,NA,NA,14.8,13.35,11.4,12.1,12.3,13.1,14.87,15.53
"676","R18236501","nikolajevsk","Volgograd","Russia",50.02,45.45,30,"AR18415",NA,NA,17.8,19.2,15.42,11,11.6,14.8,16.5,16.13,15.08
"677","R18238501","novoanniski","Volgograd","Russia",50.52,42.67,90,"AR18238501",NA,NA,NA,NA,NA,18.7,20.5,20.9,20.9,19.47,17.91
"678","R18245501","pallasovka","Volgograd","Russia",50.05,46.88,30,"AR18245501",NA,NA,NA,NA,NA,10.3,13.5,15.5,17.7,17.16,15.98
"679","R18250501","serfimovich","Volgograd","Russia",49.58,42.73,110,"AR18250501",NA,NA,NA,NA,NA,8.9,9.7,10,10,9.94,9.37
"680","R18251507","krasnoslobd","Volgograd","Russia",48.7,44.57,0,"AR18251507",NA,NA,NA,7.2,10.55,19,17.7,16,13.5,14.36,16.01
"681","R18253501","surovikino","Volgograd","Russia",48.6,42.85,40,"AR18253501",NA,NA,NA,NA,NA,9.7,15.2,17,18.3,20.34,20.53
"682","R18401","volgograd","Volgograd","Russia",48.7,44.48,80,"AR18401",4.61,7.19,55.19,148.4,445,598.46,826,937.97,1008.51,1026.7,1021.24
"683","R18410","volzhskij","Volgograd","Russia",48.78,44.77,20,"AR18401",NA,NA,NA,NA,NA,67,142.1,209.2,268.8,313.17,314.44
"684","R18415","kamyshin","Volgograd","Russia",50.08,45.4,50,"AR18415",7.27,10.44,16.26,18.4,24,56.5,97.2,111.6,122.5,127.89,119.92
"685","R18420","mihajlovka","Volgograd","Russia",50.07,43.23,80,"AR18420",NA,NA,NA,12.9,18,35,49.8,58.2,58.3,60.03,59.15
"686","R18425","urjupinsk","Volgograd","Russia",50.8,42.02,80,"AR18425",NA,NA,11.29,14.4,19.6,31.5,38.2,40.2,43,41.96,41.59
"687","R18428","frolovo","Volgograd","Russia",49.77,43.65,110,"AR18428",NA,NA,NA,NA,17.4,26.4,33.4,39.5,41.7,41.13,39.49
"688","R19205501","babajevo","Vologda","Russia",59.38,35.95,135,"AR19205501",NA,NA,NA,3.2,8.3,12,12.3,12.9,14.2,12.6,12.07
"689","R19210501","belozersk","Vologda","Russia",60.03,37.78,130,"AR19210501",NA,4.14,5.02,7,10.3,10.4,12.1,12.3,12.3,10.98,9.61
"690","R19222501","vytegra","Vologda","Russia",61,36.45,50,"AR19222501",NA,2.47,4.5,5.1,7.4,11.3,11.7,12,12.9,11.4,10.49
"691","R19224501","grjazovec","Vologda","Russia",58.88,40.25,185,"AR19224501",NA,2.87,3.21,4.8,8.1,9.2,11.6,13.8,16.4,16.17,15.53
"692","R19228501","kirillov","Vologda","Russia",59.87,38.38,120,"AR19228501",NA,2.65,4.31,4.3,5.3,6.1,6.3,7.3,8.8,8.23,7.74
"693","R19234501","nikolskv","Vologda","Russia",59.53,45.45,140,"AR19234501",NA,1.24,2.55,3.1,5.1,5.6,6.5,7.3,8.6,8.65,8.52
"694","R19238504","kadnikov","Vologda","Russia",59.5,40.33,140,"AR19238504",NA,2.17,2.41,2.3,3.2,3.2,3.5,5.3,5.3,5.36,4.8
"695","R19246501","totjma","Vologda","Russia",59.98,42.77,130,"AR19246501",NA,2.88,4.95,5.4,6.9,7.9,8.5,9.3,10.6,10.53,9.78
"696","R19250501","ustjuzhna","Vologda","Russia",58.83,36.43,120,"AR19250501",NA,5.06,5.11,5.2,7.2,8.8,8.9,9.2,10,10.51,9.48
"697","R19252501","harovsk","Vologda","Russia",59.95,40.2,160,"AR19252501",NA,NA,NA,0.5,7.4,11.3,14.1,12.9,13.1,11.46,10.08
"698","R19401","vologda","Vologda","Russia",59.22,39.9,120,"AR19401",16.32,14.16,27.71,57.1,95.3,139.1,177.8,236.5,282.8,293.05,301.64
"699","R19410","velustug","Vologda","Russia",60.77,46.3,70,"AR19410",NA,7.96,11.14,19.1,32.1,37,36.7,37.9,36.2,33.42,31.66
"700","R19410501","krasavino","Vologda","Russia",60.97,46.48,65,"AR19410501",NA,NA,0.5,3.71,9.1,11.2,10.9,10.3,9.5,8.21,7
"701","R19420","sokol","Vologda","Russia",59.47,40.12,115,"AR19420",NA,NA,NA,NA,29.8,41.7,48.3,45.3,46.6,43.04,38.45
"702","R19430","cherepovec","Vologda","Russia",59.13,37.92,130,"AR19430",1.56,2.71,6.95,21.2,32.4,92.4,188.3,265.9,310.5,311.87,312.31
"703","R20204501","bobrov","Voronej","Russia",51.08,40.03,150,"AR20204501",NA,3.2,3.88,17.4,7,7.6,18,21.4,21.3,20.81,19.74
"704","R20205501","boguchar","Voronej","Russia",49.93,40.55,80,"AR20205501",NA,2.4,6.64,7.9,4.3,3.4,6.6,7.3,8.5,13.76,11.81
"705","R20208501","buturlinvka","Voronej","Russia",50.83,40.6,120,"AR20208501",NA,NA,23.5,27.5,11.4,13.3,21.6,23.6,29.3,28.63,27.21
"706","R20215501","kalach","Voronej","Russia",50.43,41,90,"AR20215501",NA,NA,15.5,17.58,18.6,16.9,18.5,20.2,23.2,20.95,20.05
"707","R20221501","liski","Voronej","Russia",50.98,39.52,110,"AR20221501",NA,NA,5.5,15.86,25.5,37.6,48.7,52.4,54,55.89,55.86
"708","R20227501","novohopersk","Voronej","Russia",51.1,41.62,140,"AR20227501",NA,4.33,5.95,7.4,8.5,8.9,8.7,8.8,8,7.64,6.85
"709","R20231501","ostrogozhsk","Voronej","Russia",50.87,39.07,110,"AR20231501",NA,7.36,20.98,22,11.7,28.4,29.9,34,34.5,34.59,33.84
"710","R20233501","pavlovskv","Voronej","Russia",50.45,40.12,90,"AR20233501",NA,4.02,7.2,9.71,11.1,12.1,14.8,21,25.9,26.37,25.13
"711","R20239501","povorino","Voronej","Russia",51.2,42.25,115,"AR20239501",NA,NA,NA,NA,10.8,19.3,20.6,19.6,19.45,18.34,17.69
"712","R20247501","rossosh","Voronej","Russia",50.2,39.58,85,"AR20247501",NA,NA,8.8,16.3,17.2,30.2,36.4,44,57,62.92,62.87
"713","R20249501","semiluki","Voronej","Russia",51.68,39.03,130,"AR20401",NA,NA,NA,NA,7.3,13.3,18.2,20.2,21.6,25.56,26.03
"714","R20258501","ertilj","Voronej","Russia",51.83,40.8,140,"AR20258501",NA,NA,NA,NA,7.1,10.1,12.6,13.2,14.1,12.89,11.39
"715","R20401","voronezh","Voronej","Russia",51.67,39.18,140,"AR20401",43.8,37.66,80.6,116.6,343.8,447.2,660.2,783,886.8,848.75,889.99
"716","R20410","borisglebsk","Voronej","Russia",51.37,42.08,100,"AR20410",2.67,8.05,22.31,39.1,52.9,54.4,63.7,67.6,72.3,69.39,65.59
"717","R20427","novvoronezh","Voronej","Russia",51.32,39.22,110,"AR20401",NA,NA,NA,NA,NA,3,12.7,25.8,35.7,36.96,32.64
"718","R22205501","balahna","Nijni-Novgorod","Russia",56.5,43.6,75,"AR22401",3.86,3.64,5.12,7.8,38.74,50.29,63.06,65.08,64.5,57.34,51.53
"719","R22207501","bogorodsk","Nijni-Novgorod","Russia",56.1,43.52,130,"AR22401",NA,NA,12.3,14.9,21.4,29.95,36.5,37.4,38.4,37.1,35.5
"720","R22211501","bor","Nijni-Novgorod","Russia",56.35,44.08,75,"AR22401",NA,NA,1.8,11.1,25.1,42.9,55.4,62.6,64.5,61.53,78.08
"721","R22218501","vetluga","Nijni-Novgorod","Russia",57.85,45.78,110,"AR22218501",NA,2.64,5.18,6,8.1,10,9.8,10,10.2,9.64,8.96
"722","R22224501","vyksa","Nijni-Novgorod","Russia",55.32,42.18,110,"AR22224501",NA,NA,NA,10.7,26.5,40.3,46.4,53.7,61.1,61.66,56.2
"723","R22228501","gorodec","Nijni-Novgorod","Russia",56.65,43.48,100,"AR22228503",NA,NA,6.3,11.2,16.1,27,34.2,35.7,34.2,32.44,30.7
"724","R22228503","zavolzhje","Nijni-Novgorod","Russia",56.63,43.4,75,"AR22228503",NA,NA,NA,NA,NA,20,34.9,41.5,44.6,43.97,40.27
"725","R22231503","volodarsk","Nijni-Novgorod","Russia",56.23,43.2,75,"AR22231503",NA,NA,NA,NA,12.9,13.2,12.7,12.4,11,10.99,9.92
"726","R22233501","knjaginino","Nijni-Novgorod","Russia",55.82,45.03,1917,"AR22233501",NA,6.66,2.74,1.3,1.38,1.5,3.4,5.4,6.4,6.84,6.71
"727","R22237501","kstovo","Nijni-Novgorod","Russia",56.15,44.2,120,"AR22401",NA,NA,NA,NA,2,27,48.3,58.8,64.2,66.94,66.64
"728","R22238501","kulebaki","Nijni-Novgorod","Russia",55.42,42.52,105,"AR22238501",NA,NA,NA,15,32.8,44.7,46.3,48.1,45.7,39.07,35.76
"729","R22239501","lukojanov","Nijni-Novgorod","Russia",55.03,44.48,170,"AR22239501",NA,2.89,2.12,6.4,5.5,7,10.2,11.4,12.3,12.86,14.95
"730","R22240501","lyskovo","Nijni-Novgorod","Russia",56.03,45.03,100,"AR22240501",NA,NA,8.5,4.7,11.2,16.2,21.4,24.3,25,23.9,21.88
"731","R22241501","navashino","Nijni-Novgorod","Russia",55.53,42.2,85,"AR17435",NA,NA,NA,NA,NA,12.5,16.7,17.5,18.9,17.81,16.41
"732","R22242501","pavlovo","Nijni-Novgorod","Russia",55.95,43.07,120,"AR22242501",NA,NA,12.4,16.3,32.4,47.9,63.2,68.4,71.5,64.81,60.7
"733","R22242503","vorsma","Nijni-Novgorod","Russia",55.98,43.27,90,"AR22242503",NA,NA,4.7,7.58,9.4,10.9,13,14,13.6,12.63,11.62
"734","R22242505","gorbatov","Nijni-Novgorod","Russia",56.13,43.07,160,"AR22242505",NA,3.22,4.6,3.3,3.1,3.6,4.6,4.2,3.6,2.66,2.28
"735","R22243501","pervomajsk","Nijni-Novgorod","Russia",54.87,43.8,155,"AR22243501",NA,NA,1.4,4.42,7.4,13.7,15.1,16.4,16.4,15.09,14.57
"736","R22244501","perevoz","Nijni-Novgorod","Russia",55.6,44.55,100,"AR22244501",NA,2.07,0.77,1.33,1.7,2.5,4.4,6.2,8.3,9.39,9.2
"737","R22247501","semjonov","Nijni-Novgorod","Russia",56.8,44.5,110,"AR22247501",NA,2.8,3.75,6,12,19.8,23.6,25.2,26.3,25.3,24.47
"738","R22248501","sergach","Nijni-Novgorod","Russia",55.53,45.47,100,"AR22248501",NA,3.43,4.53,2.3,5.3,8.2,22.5,24.4,25.2,22.89,21.39
"739","R22254501","urenj","Nijni-Novgorod","Russia",57.47,45.78,110,"AR22254501",NA,NA,NA,NA,NA,10.8,10.6,13.1,13.6,12.56,12.31
"740","R22255501","chkalovsk","Nijni-Novgorod","Russia",56.77,43.25,100,"AR22255501",NA,NA,1,3.98,7.4,11.6,13.8,14.6,15.1,13.86,12.37
"741","R22258501","shahunja","Nijni-Novgorod","Russia",57.67,46.62,150,"AR22258501",NA,NA,NA,10.2,13.63,21.3,20.1,21,22.3,21.72,20.93
"742","R22401","nnovgorod","Nijni-Novgorod","Russia",56.32,44,75,"AR22401",26.1,35.8,90.05,221.27,643.7,942,1170.3,1344.5,1438.1,1311.25,1250.62
"743","R22403","arzamas","Nijni-Novgorod","Russia",55.4,43.82,150,"AR22403",9.31,10.35,10.59,18.5,25.8,41.5,67.5,93.3,109,109.43,106.37
"744","R22421","dzerdginsk","Nijni-Novgorod","Russia",56.23,43.45,90,"AR22401",NA,NA,NA,8.4,103.4,164.3,221.3,257.1,285.1,261.33,240.76
"745","R22503","sarov","Nijni-Novgorod","Russia",54.93,43.32,140,"AR22503",NA,NA,NA,NA,2.8,8.36,15.24,24.93,43.07,87.65,92.07
"746","R24203501","gavrilposad","Ivanovo","Russia",56.57,40.12,120,"AR24203501",NA,NA,1.2,2.2,6.1,6.7,7.5,7.8,8.5,7.19,6.43
"747","R24205501","zavolzhsk","Ivanovo","Russia",57.48,42.13,120,"AR24405",NA,NA,NA,NA,12.1,15.5,16.7,17.1,16.5,13.46,12.05
"748","R24207504","kohma","Ivanovo","Russia",56.93,41.08,120,"AR24401",NA,NA,3.3,11.6,19,20.3,22.3,25.1,27,28.76,29.41
"749","R24211504","navoloki","Ivanovo","Russia",57.47,41.97,120,"AR24405",NA,NA,NA,NA,NA,13.8,13.5,12.8,12.4,11.25,10.21
"750","R24213501","komsomoljsk","Ivanovo","Russia",57.03,40.38,145,"AR24213501",NA,NA,NA,NA,15.7,11.1,12.3,12.3,11.6,9.6,8.69
"751","R24220504","pljos","Ivanovo","Russia",57.45,41.5,140,"AR24220504",NA,2.36,2.16,2,3.6,4,4.7,4.1,4.1,2.79,2.34
"752","R24220506","privolzhsk","Ivanovo","Russia",57.38,41.28,110,"AR24220506",NA,NA,NA,NA,14.7,18.7,19.8,20.4,20.7,18.39,16.75
"753","R24221501","puchezh","Ivanovo","Russia",56.98,43.17,100,"AR24221501",NA,NA,3,5.5,7.3,9.3,12.3,12.9,12.7,10.35,8.58
"754","R24223501","rodniki","Ivanovo","Russia",57.1,41.73,140,"AR24223501",NA,NA,NA,15.4,27,29.3,30,30.6,32.1,28.45,26.32
"755","R24235501","juzha","Ivanovo","Russia",56.58,42.02,105,"AR24235501",NA,NA,NA,12.9,21.6,23.1,23.8,22.1,20.9,15.64,14.17
"756","R24237501","jurjevec","Ivanovo","Russia",57.32,43.1,120,"AR24237501",NA,2.97,4.78,9.3,15.5,19.7,20.1,18.3,16.5,12.66,10.21
"757","R24401","ivanovo","Ivanovo","Russia",57,40.98,120,"AR24401",NA,1.33,54.21,111.2,285.2,335.2,419.6,464.5,481,431.72,409.28
"758","R24403","vichuga","Ivanovo","Russia",57.2,41.92,135,"AR24403",NA,NA,NA,24.8,46.9,51.7,52.6,52,49.7,40.87,37.61
"759","R24405","kineshma","Ivanovo","Russia",57.45,42.15,110,"AR24405",3.64,2.12,7.58,22.3,75,87.2,95.6,101.3,105,95.23,88.11
"760","R24407","tejkovo","Ivanovo","Russia",56.85,40.55,125,"AR24407",NA,NA,5.8,17.5,27.3,28.3,41.6,34.7,38.1,36.69,34.99
"761","R24409","furmanov","Ivanovo","Russia",57.25,41.1,130,"AR24409",NA,NA,NA,21,36,38.2,40.2,44.2,46.2,39.69,36.15
"762","R24411","shuja","Ivanovo","Russia",56.85,41.37,100,"AR24411",3.18,9.31,19.58,35.5,57.9,64.6,68.8,72.3,69.4,62.45,58.53
"763","R25204503","vihorevka","Irkoutsk","Russia",56.12,101.17,365,"AR25204503",NA,NA,NA,NA,NA,10.9,17.9,20.5,23.9,24.76,22.53
"764","R25220501","kirensk","Irkoutsk","Russia",57.78,108.1,255,"AR25220501",NA,0.94,2.28,4.7,7.31,14.4,14.5,16.2,16.1,13.71,12.65
"765","R25226501","zhelezgrilm","Irkoutsk","Russia",56.58,104.12,430,"AR25226501",NA,NA,NA,NA,NA,6.54,22.2,29.1,32.3,29.09,26.13
"766","R25234501","sljudjanka","Irkoutsk","Russia",51.67,103.7,470,"AR25234501",NA,NA,NA,NA,NA,21.4,20.6,19.8,19.9,19.12,18.54
"767","R25234508","bajkalsk","Irkoutsk","Russia",51.55,104.05,460,"AR25234508",NA,NA,NA,NA,NA,NA,13.3,15.5,16.4,15.73,13.59
"768","R25401","irkutsk","Irkoutsk","Russia",52.28,104.3,440,"AR25401",14.18,24.1,51.47,102.7,250.2,365.9,451,549.8,626.1,593.6,587.23
"769","R25405","angarsk","Irkoutsk","Russia",52.57,103.92,425,"AR25405",NA,NA,NA,NA,NA,140.08,209.01,244.08,270.65,251.18,233.77
"770","R25410","bodajbo","Irkoutsk","Russia",57.85,114.2,280,"AR25410",NA,NA,NA,NA,15.1,18.2,13.9,14.4,20.9,16.5,15.33
"771","R25414","bratsk","Irkoutsk","Russia",56.12,101.6,450,"AR25414",NA,NA,NA,NA,NA,51.5,185.26,244.05,284.62,259.34,246.35
"772","R25420","zima","Irkoutsk","Russia",53.92,102.05,450,"AR25420",NA,NA,NA,NA,26.8,38.5,41.6,48.1,41.8,34.9,32.52
"773","R25424","nizhnudinsk","Irkoutsk","Russia",54.9,99.02,410,"AR25424",0.79,2.43,5.75,10.4,17.47,38.8,39.7,41.4,43.8,39.62,37.06
"774","R25424505","alzamaj","Irkoutsk","Russia",55.55,98.67,300,"AR25424505",NA,NA,NA,NA,NA,13.1,10.6,9.3,9,7.38,6.75
"775","R25426","sajansk","Irkoutsk","Russia",54.12,102.17,550,"AR25426",NA,NA,NA,NA,NA,NA,NA,8.4,38.2,43.47,40.79
"776","R25428","tajshet","Irkoutsk","Russia",55.93,98.02,320,"AR25428",NA,NA,NA,NA,11.7,33.5,34.2,38.2,42.4,38.54,35.48
"777","R25428505","birjusinsk","Irkoutsk","Russia",55.95,97.82,310,"AR25428505",NA,NA,NA,NA,NA,13.3,13.5,12.7,12.1,10,8.98
"778","R25432","tulun","Irkoutsk","Russia",54.57,100.57,490,"AR25432",NA,NA,2,6,28,41.8,49.4,51.8,52.9,51.85,44.6
"779","R25436","usoljesibir","Irkoutsk","Russia",52.75,103.65,440,"AR25436",NA,NA,3,8,20,48.5,86.7,103,106.5,90.16,83.36
"780","R25438","ustjilimsk","Irkoutsk","Russia",58,102.67,300,"AR25438",NA,NA,NA,NA,NA,NA,21.3,68.6,109.3,100.59,86.59
"781","R25440","ustjkut","Irkoutsk","Russia",56.8,105.83,300,"AR25440",NA,NA,NA,NA,NA,21.3,33.2,49.6,61.2,49.95,45.06
"782","R25445","cheremhovo","Irkoutsk","Russia",53.15,103.07,560,"AR25445",NA,NA,2,14.5,55.6,122.8,98.7,76.7,73.6,60.11,52.65
"783","R25445505","svirsk","Irkoutsk","Russia",53.08,103.33,420,"AR25445505",NA,NA,NA,NA,NA,21.2,20.5,21.8,19.2,15.5,13.65
"784","R25450","shelehov","Irkoutsk","Russia",52.2,104.1,460,"AR25401",NA,NA,NA,NA,NA,13,29.9,40.6,47.7,47.52,47.96
"785","R26401","magas","Ingouchie","Russia",43.17,44.82,560,"AR26401",NA,NA,NA,NA,NA,NA,NA,NA,NA,0.28,2.51
"786","R26405","malgobek","Ingouchie","Russia",43.52,44.58,360,"AR26405",NA,NA,NA,NA,12.4,13.9,20.5,20.6,20.4,41.88,31.08
"787","R26406","nazranj","Ingouchie","Russia",43.22,44.77,520,"AR26406",NA,NA,NA,1.3,2.8,5.7,12.9,14.9,18.2,125.07,93.36
